Place of Origin,year,students,country_code,long,lat
"AFRICA, SUB-SAHARAN",2009/10,"32,121",,,
"Africa, Sub-saharan, Unspecified",2009/10,0,,,
East Africa,2009/10,"9,872",,,
Burundi,2009/10,113,108,29.87512156,-3.35939666
Djibouti,2009/10,3,262,42.5606754,11.74871806
Eritrea,2009/10,164,232,38.84617011,15.36186618
Ethiopia,2009/10,"1,553",231,39.60080098,8.62278679
Kenya,2009/10,"5,384",404,37.79593973,0.59988022
Rwanda,2009/10,451,646,29.91988515,-1.99033832
Seychelles,2009/10,5,690,55.47603279,-4.66099094
Somalia,2009/10,36,706,45.70714487,4.75062876
South Sudan,2009/10,,728,30.24790002,7.30877945
Sudan,2009/10,213,729,29.94046812,15.99035669
Tanzania,2009/10,"1,098",,,
Uganda,2009/10,852,800,32.36907971,1.27469299
"East Africa, Unspecified",2009/10,0,,,
Central Africa,2009/10,"2,872",,,
Cameroon,2009/10,"1,881",120,12.73964156,5.69109849
Central African Republic,2009/10,32,140,20.46826831,6.56823297
Chad,2009/10,96,148,18.64492513,15.33333758
"Congo, Republic of the (Brazzaville)",2009/10,229,,,
"Congo, Dem. Rep. of the (Kinshasa)",2009/10,249,,,
Equatorial Guinea,2009/10,78,226,10.34137924,1.70555135
Gabon,2009/10,306,266,11.7886287,-0.58660025
São Tomé & Príncipe,2009/10,1,,,
"Central Africa, Unspecified",2009/10,0,,,
Southern Africa,2009/10,"5,313",,,
Angola,2009/10,615,024,17.53736768,-12.29336054
Botswana,2009/10,212,072,23.79853368,-22.18403213
Comoros,2009/10,50,174,43.68253968,-11.87783444
Eswatini,2009/10,140,,,
Lesotho,2009/10,48,426,28.22723131,-29.58003188
Madagascar,2009/10,142,450,46.70473674,-19.37189587
Malawi,2009/10,274,454,34.28935599,-13.21808088
Mauritius,2009/10,210,480,57.57120551,-20.27768704
Mozambique,2009/10,88,508,35.53367543,-17.27381643
Namibia,2009/10,76,516,17.20963567,-22.13032568
Reunion,2009/10,2,,,
South Africa,2009/10,"1,656",710,25.08390093,-29.00034095
Zambia,2009/10,641,894,27.77475946,-13.45824152
Zimbabwe,2009/10,"1,159",716,29.8514412,-19.00420419
"Southern Africa, Unspecified",2009/10,0,,,
West Africa,2009/10,"14,064",,,
Benin,2009/10,342,204,2.32785254,9.6417597
Burkina Faso,2009/10,680,854,-1.75456601,12.26953846
Cabo Verde/Cape Verde,2009/10,42,,,
Côte d’Ivoire/Ivory Coast,2009/10,867,384,-5.5692157,7.6284262
Gambia,2009/10,299,270,-15.39601295,13.44965244
Ghana,2009/10,"2,951",288,-1.21676566,7.95345644
Guinea,2009/10,180,324,-10.94066612,10.43621593
Guinea-Bissau,2009/10,15,624,-14.94972445,12.04744948
Liberia,2009/10,231,430,-9.32207573,6.45278492
Mali,2009/10,500,466,-3.54269065,17.34581581
Mauritania,2009/10,52,478,-10.34779815,20.25736706
Niger,2009/10,228,562,9.38545882,17.41912493
Nigeria,2009/10,"6,568",566,8.08943895,9.59411452
Saint Helena,2009/10,2,654,-9.54779416,-12.40355951
Senegal,2009/10,624,686,-14.4734924,14.36624173
Sierra Leone,2009/10,173,694,-11.79271247,8.56329593
Togo,2009/10,310,768,0.96232845,8.52531356
"West Africa, Unspecified",2009/10,0,,,
ASIA,2009/10,"435,667",,,
"Asia, Unspecified",2009/10,0,,,
East Asia,2009/10,"261,125",,,
China,2009/10,"127,628",156,103.81907349,36.56176546
Hong Kong,2009/10,"8,034",364,54.27407004,32.57503292
Japan,2009/10,"24,842",392,138.03089558,37.59230135
Macau,2009/10,468,,,
Mongolia,2009/10,"1,258",496,103.05299765,46.82681544
North Korea,2009/10,57,408,127.19247973,40.15350311
South Korea,2009/10,"72,153",410,127.83916086,36.38523983
Taiwan,2009/10,"26,685",158,120.95427281,23.7539928
"East Asia, Unspecified",2009/10,0,,,
South and Central Asia,2009/10,"130,725",,,
Afghanistan,2009/10,426,004,66.00473366,33.83523073
Bangladesh,2009/10,"2,619",050,90.23812743,23.86731158
Bhutan,2009/10,126,064,90.40188155,27.41106589
India,2009/10,"104,897",356,79.6119761,22.88578212
Kazakhstan,2009/10,"1,936",398,67.29149357,48.15688067
Kyrgyzstan,2009/10,274,417,74.54165513,41.46221943
Maldives,2009/10,39,462,73.45713004,3.7287092
Nepal,2009/10,"11,233",524,83.9158264,28.24891365
Pakistan,2009/10,"5,222",586,69.33957937,29.9497515
Sri Lanka,2009/10,"2,957",144,80.70108238,7.61266509
Tajikistan,2009/10,288,762,71.01362631,38.5304539
Turkmenistan,2009/10,195,795,59.37100021,39.11554137
Uzbekistan,2009/10,513,860,63.14001528,41.75554225
"South and Central Asia, Unspecified",2009/10,0,,,
Southeast Asia,2009/10,"43,817",,,
Brunei,2009/10,43,,,
Cambodia,2009/10,347,116,104.90694325,12.72004786
Indonesia,2009/10,"6,943",360,117.24011366,-2.21505456
Laos,2009/10,64,,,
Malaysia,2009/10,"6,190",458,109.69762284,3.78986846
Myanmar,2009/10,695,104,96.48843321,21.18566599
Philippines,2009/10,"3,815",608,122.88393253,11.77536778
Singapore,2009/10,"4,051",702,103.81725592,1.35876087
Thailand,2009/10,"8,531",764,101.0028813,15.11815794
Timor-Leste/East Timor,2009/10,26,,,
Vietnam,2009/10,"13,112",704,106.29914698,16.6460167
"Southeast Asia, Unspecified",2009/10,0,,,
EUROPE,2009/10,"85,084",,,
Albania,2009/10,790,008,20.04983396,41.14244989
Andorra,2009/10,11,020,1.56054378,42.54229102
Armenia,2009/10,374,051,44.92993276,40.28952569
Austria,2009/10,994,040,14.1264761,47.58549439
Azerbaijan,2009/10,409,031,47.54599879,40.28827235
Belarus,2009/10,408,112,28.03209307,53.53131377
Belgium,2009/10,845,056,4.64065114,50.63981576
Bosnia and Herzegovina,2009/10,404,070,17.76876733,44.17450125
Bulgaria,2009/10,"2,495",100,25.21552909,42.76890318
Croatia,2009/10,623,191,16.40412899,45.08047631
Cyprus,2009/10,586,196,33.0060022,34.91667211
Czech Republic,2009/10,828,,,
"Czechoslovakia, Former",2009/10,,,,
Denmark,2009/10,989,208,10.02800992,55.98125296
Estonia,2009/10,220,233,25.54248537,58.67192972
Finland,2009/10,663,246,26.2746656,64.49884603
France,2009/10,"7,716",250,-2.76172945,42.17344011
Georgia,2009/10,448,268,43.50780252,42.16855755
Germany,2009/10,"9,548",276,10.38578051,51.10698181
Gibraltar,2009/10,18,292,,
Greece,2009/10,"1,837",300,22.95555794,39.07469623
Hungary,2009/10,664,348,19.39559116,47.16277506
Iceland,2009/10,407,352,-18.57396167,64.99575386
Ireland,2009/10,"1,212",372,-8.13793569,53.1754487
Italy,2009/10,"4,072",380,12.07001339,42.79662641
Kosovo,2009/10,88,,,
Latvia,2009/10,286,428,24.91235983,56.85085163
Liechtenstein,2009/10,8,438,9.53574312,47.13665835
Lithuania,2009/10,361,440,23.88719355,55.32610984
Luxembourg,2009/10,56,442,6.07182201,49.76725361
Macedonia,2009/10,278,,,
Malta,2009/10,32,470,14.40523316,35.92149632
Moldova,2009/10,441,,,
Monaco,2009/10,23,492,7.40627677,43.75274627
Montenegro,2009/10,94,499,19.23883939,42.78890259
Netherlands,2009/10,"1,830",528,5.28144793,52.1007899
Norway,2009/10,"1,467",578,15.34834656,68.75015572
Poland,2009/10,"2,264",616,19.39012835,52.12759564
Portugal,2009/10,"1,015",620,-8.50104361,39.59550671
Romania,2009/10,"2,204",642,24.97293039,45.85243127
Russia,2009/10,"4,827",643,96.68656112,61.98052209
San Marino,2009/10,2,674,12.45922334,43.94186747
Serbia,2009/10,"1,175",688,20.78958334,44.2215032
Serbia & Montenegro,2009/10,,,,
Slovakia,2009/10,466,703,19.47905218,48.70547528
Slovenia,2009/10,192,705,14.80444238,46.11554772
Spain,2009/10,"3,971",724,-3.64755047,40.24448698
Sweden,2009/10,"3,116",752,16.74558049,62.77966519
Switzerland,2009/10,"1,284",756,8.20867471,46.79785878
Turkey,2009/10,"12,397",792,35.16895346,39.0616029
"U.S.S.R., Former",2009/10,,,,
Ukraine,2009/10,"1,727",804,31.38326469,48.99656673
United Kingdom,2009/10,"8,861",826,-2.86563164,54.12387156
Vatican City/Holy See,2009/10,1,,,
"Yugoslavia, Former",2009/10,57,,,
"Europe, Unspecified",2009/10,0,,,
LATIN AMERICA & CARIBBEAN,2009/10,"66,061",,,
"Latin America & Caribbean, Unspecified",2009/10,0,,,
Caribbean,2009/10,"13,541",,,
Anguilla,2009/10,65,660,-63.06498927,18.2239595
Antigua and Barbuda,2009/10,213,028,-61.79469343,17.2774996
Aruba,2009/10,72,533,-69.98267711,12.52088038
Bahamas,2009/10,"1,828",044,-76.62843038,24.29036702
Barbados,2009/10,360,052,-59.559797,13.18145428
Bermuda,2009/10,429,060,-64.7545589,32.31367802
British Virgin Islands,2009/10,122,092,-64.47146992,18.52585755
Cayman Islands,2009/10,158,136,-80.91213321,19.42896497
Cuba,2009/10,88,192,-79.01605384,21.62289528
Curacao,2009/10,,,,
Dominica,2009/10,301,212,-61.357726,15.4394702
Dominican Republic,2009/10,"1,400",214,-70.50568896,18.89433082
Grenada,2009/10,231,308,-61.68220189,12.11725044
Guadeloupe,2009/10,14,312,,
Haiti,2009/10,"1,012",332,-72.68527509,18.93502563
Jamaica,2009/10,"3,530",388,-77.31482593,18.15694878
Martinique,2009/10,8,474,,
Montserrat,2009/10,15,500,-62.18518546,16.73941406
Netherlands Antilles,2009/10,244,,,
St. Kitts and Nevis,2009/10,244,,,
St. Lucia,2009/10,529,,,
St. Vincent and the Grenadines,2009/10,124,,,
Sint Maarten,2009/10,,,,
Trinidad and Tobago,2009/10,"2,402",780,-61.26567923,10.45733408
Turks and Caicos,2009/10,146,,,
"Caribbean, Unspecified",2009/10,6,,,
Mexico and Central America,2009/10,"19,956",,,
Belize,2009/10,415,084,-88.71010486,17.20027509
Costa Rica,2009/10,"1,089",188,-84.19208768,9.97634464
El Salvador,2009/10,"1,208",222,-88.87164469,13.73943744
Guatemala,2009/10,992,320,-90.36482009,15.69403664
Honduras,2009/10,"1,337",340,-86.6151661,14.82688165
Mexico,2009/10,"13,450",484,-102.52345169,23.94753724
Nicaragua,2009/10,383,558,-85.0305297,12.84709429
Panama,2009/10,"1,082",591,-80.11915156,8.51750797
"Mexico and Central America, Unspecified",2009/10,0,,,
South America,2009/10,"32,564",,,
Argentina,2009/10,"2,165",032,-65.17980692,-35.3813488
Bolivia,2009/10,"1,039",068,-64.68538645,-16.70814787
Brazil,2009/10,"8,786",076,-53.09783113,-10.78777702
Chile,2009/10,"2,055",152,-71.38256213,-37.73070989
Colombia,2009/10,"6,920",170,-73.08114582,3.91383431
Ecuador,2009/10,"2,232",218,-78.75201922,-1.42381612
Falkland Islands,2009/10,1,,,
French Guiana,2009/10,2,254,,
Guyana,2009/10,296,328,-58.98202459,4.79378034
Paraguay,2009/10,340,600,-58.40013703,-23.22823913
Peru,2009/10,"3,279",604,-74.38242685,-9.15280381
Suriname,2009/10,101,740,-55.9123457,4.13055413
Uruguay,2009/10,390,858,-56.01807053,-32.79951534
Venezuela,2009/10,"4,958",862,-66.18184123,7.12422421
"South America, Unspecified",2009/10,0,,,
MIDDLE EAST & NORTH AFRICA,2009/10,"38,738",,,
MIDDLE EAST,2009/10,"33,797",,,
Bahrain,2009/10,415,048,50.54196932,26.04205135
Iran,2009/10,"4,731",364,54.27407004,32.57503292
Iraq,2009/10,423,368,43.74353149,33.03970582
Israel,2009/10,"2,778",376,35.00444693,31.46110101
Jordan,2009/10,"1,995",400,36.77136104,31.24579091
Kuwait,2009/10,"2,442",414,47.58700459,29.33431262
Lebanon,2009/10,"1,608",422,35.88016072,33.92306631
Oman,2009/10,286,512,56.09166155,20.60515333
Palestinian Territories,2009/10,304,,,
Qatar,2009/10,663,634,51.18479632,25.30601188
Saudi Arabia,2009/10,"15,810",682,44.53686271,24.12245841
Syria,2009/10,424,,,
United Arab Emirates,2009/10,"1,653",784,54.3001671,23.90528188
Yemen,2009/10,265,887,47.58676189,15.90928005
"Middle East, Unspecified",2009/10,0,,,
North Africa,2009/10,"4,941",,,
Algeria,2009/10,178,012,2.61732301,28.15893849
Egypt,2009/10,"2,271",818,29.86190099,26.49593311
Libya,2009/10,"1,064",434,18.00866169,27.03094495
Morocco,2009/10,"1,120",504,-8.45615795,29.83762955
Tunisia,2009/10,308,788,9.55288359,34.11956246
Western Sahara,2009/10,,732,-12.21982755,24.22956739
"North Africa, Unspecified",2009/10,0,,,
NORTH AMERICA,2009/10,"28,145",,,
Canada,2009/10,"28,145",124,-98.30777028,61.36206324
OCEANIA,2009/10,"5,107",,,
Australia,2009/10,"3,296",036,134.49100008,-25.73288704
Cook Islands,2009/10,9,184,-159.78724218,-21.21927288
Fiji,2009/10,157,242,165.45195432,-17.42858032
French Polynesia,2009/10,28,258,-144.90494387,-14.72227409
Kiribati,2009/10,31,296,-45.61110513,0.86001503
Marshall Islands,2009/10,51,584,170.33976122,7.00376358
Micronesia,2009/10,115,,,
Nauru,2009/10,2,520,166.93256823,-0.51912639
New Caledonia,2009/10,12,540,165.68492374,-21.29991806
New Zealand,2009/10,"1,103",554,171.48492347,-41.81113557
Niue,2009/10,36,570,-169.86994682,-19.04945708
Norfolk Island,2009/10,5,574,167.94921678,-29.0514609
Palau,2009/10,32,585,134.40807966,7.28742784
Papua New Guinea,2009/10,52,598,145.20744752,-6.46416646
Samoa,2009/10,43,882,-172.16485064,-13.75324346
Solomon Islands,2009/10,8,090,159.63287668,-8.92178022
Tonga,2009/10,102,776,-174.80987341,-20.42843174
Tuvalu,2009/10,2,798,,
Vanuatu,2009/10,5,548,167.68644636,-16.22640909
Wallis and Futuna,2009/10,2,,,
"Pacific Islands, Unspecified",2009/10,16,,,
Stateless,2009/10,0,,,
WORLD TOTAL,2009/10,"690,923",,,
"AFRICA, SUB-SAHARAN",2010/11,"31,470",,,
"Africa, Sub-saharan, Unspecified",2010/11,0,,,
East Africa,2010/11,"8,863",,,
Burundi,2010/11,123,108,29.87512156,-3.35939666
Djibouti,2010/11,11,262,42.5606754,11.74871806
Eritrea,2010/11,120,232,38.84617011,15.36186618
Ethiopia,2010/11,"1,392",231,39.60080098,8.62278679
Kenya,2010/11,"4,666",404,37.79593973,0.59988022
Rwanda,2010/11,457,646,29.91988515,-1.99033832
Seychelles,2010/11,6,690,55.47603279,-4.66099094
Somalia,2010/11,26,706,45.70714487,4.75062876
South Sudan,2010/11,,728,30.24790002,7.30877945
Sudan,2010/11,236,729,29.94046812,15.99035669
Tanzania,2010/11,"1,006",,,
Uganda,2010/11,820,800,32.36907971,1.27469299
"East Africa, Unspecified",2010/11,0,,,
Central Africa,2010/11,"2,831",,,
Cameroon,2010/11,"1,659",120,12.73964156,5.69109849
Central African Republic,2010/11,29,140,20.46826831,6.56823297
Chad,2010/11,99,148,18.64492513,15.33333758
"Congo, Republic of the (Brazzaville)",2010/11,240,,,
"Congo, Dem. Rep. of the (Kinshasa)",2010/11,252,,,
Equatorial Guinea,2010/11,119,226,10.34137924,1.70555135
Gabon,2010/11,431,266,11.7886287,-0.58660025
São Tomé & Príncipe,2010/11,2,,,
"Central Africa, Unspecified",2010/11,0,,,
Southern Africa,2010/11,"5,330",,,
Angola,2010/11,699,024,17.53736768,-12.29336054
Botswana,2010/11,229,072,23.79853368,-22.18403213
Comoros,2010/11,23,174,43.68253968,-11.87783444
Eswatini,2010/11,146,,,
Lesotho,2010/11,51,426,28.22723131,-29.58003188
Madagascar,2010/11,146,450,46.70473674,-19.37189587
Malawi,2010/11,269,454,34.28935599,-13.21808088
Mauritius,2010/11,247,480,57.57120551,-20.27768704
Mozambique,2010/11,76,508,35.53367543,-17.27381643
Namibia,2010/11,73,516,17.20963567,-22.13032568
Reunion,2010/11,7,,,
South Africa,2010/11,"1,669",710,25.08390093,-29.00034095
Zambia,2010/11,560,894,27.77475946,-13.45824152
Zimbabwe,2010/11,"1,135",716,29.8514412,-19.00420419
"Southern Africa, Unspecified",2010/11,0,,,
West Africa,2010/11,"14,446",,,
Benin,2010/11,289,204,2.32785254,9.6417597
Burkina Faso,2010/11,626,854,-1.75456601,12.26953846
Cabo Verde/Cape Verde,2010/11,55,,,
Côte d’Ivoire/Ivory Coast,2010/11,904,384,-5.5692157,7.6284262
Gambia,2010/11,385,270,-15.39601295,13.44965244
Ghana,2010/11,"2,900",288,-1.21676566,7.95345644
Guinea,2010/11,139,324,-10.94066612,10.43621593
Guinea-Bissau,2010/11,12,624,-14.94972445,12.04744948
Liberia,2010/11,172,430,-9.32207573,6.45278492
Mali,2010/11,481,466,-3.54269065,17.34581581
Mauritania,2010/11,60,478,-10.34779815,20.25736706
Niger,2010/11,247,562,9.38545882,17.41912493
Nigeria,2010/11,"7,148",566,8.08943895,9.59411452
Saint Helena,2010/11,4,654,-9.54779416,-12.40355951
Senegal,2010/11,600,686,-14.4734924,14.36624173
Sierra Leone,2010/11,183,694,-11.79271247,8.56329593
Togo,2010/11,241,768,0.96232845,8.52531356
"West Africa, Unspecified",2010/11,0,,,
ASIA,2010/11,"461,818",,,
"Asia, Unspecified",2010/11,0,,,
East Asia,2010/11,"286,925",,,
China,2010/11,"157,558",156,103.81907349,36.56176546
Hong Kong,2010/11,"8,136",364,54.27407004,32.57503292
Japan,2010/11,"21,290",392,138.03089558,37.59230135
Macau,2010/11,497,,,
Mongolia,2010/11,"1,259",496,103.05299765,46.82681544
North Korea,2010/11,16,408,127.19247973,40.15350311
South Korea,2010/11,"73,351",410,127.83916086,36.38523983
Taiwan,2010/11,"24,818",158,120.95427281,23.7539928
"East Asia, Unspecified",2010/11,0,,,
South and Central Asia,2010/11,"128,873",,,
Afghanistan,2010/11,429,004,66.00473366,33.83523073
Bangladesh,2010/11,"2,873",050,90.23812743,23.86731158
Bhutan,2010/11,115,064,90.40188155,27.41106589
India,2010/11,"103,895",356,79.6119761,22.88578212
Kazakhstan,2010/11,"1,890",398,67.29149357,48.15688067
Kyrgyzstan,2010/11,279,417,74.54165513,41.46221943
Maldives,2010/11,34,462,73.45713004,3.7287092
Nepal,2010/11,"10,301",524,83.9158264,28.24891365
Pakistan,2010/11,"5,045",586,69.33957937,29.9497515
Sri Lanka,2010/11,"2,965",144,80.70108238,7.61266509
Tajikistan,2010/11,249,762,71.01362631,38.5304539
Turkmenistan,2010/11,210,795,59.37100021,39.11554137
Uzbekistan,2010/11,560,860,63.14001528,41.75554225
"South and Central Asia, Unspecified",2010/11,28,,,
Southeast Asia,2010/11,"46,020",,,
Brunei,2010/11,66,,,
Cambodia,2010/11,340,116,104.90694325,12.72004786
Indonesia,2010/11,"6,942",360,117.24011366,-2.21505456
Laos,2010/11,49,,,
Malaysia,2010/11,"6,735",458,109.69762284,3.78986846
Myanmar,2010/11,796,104,96.48843321,21.18566599
Philippines,2010/11,"3,604",608,122.88393253,11.77536778
Singapore,2010/11,"4,316",702,103.81725592,1.35876087
Thailand,2010/11,"8,236",764,101.0028813,15.11815794
Timor-Leste/East Timor,2010/11,48,,,
Vietnam,2010/11,"14,888",704,106.29914698,16.6460167
"Southeast Asia, Unspecified",2010/11,0,,,
EUROPE,2010/11,"84,296",,,
Albania,2010/11,697,008,20.04983396,41.14244989
Andorra,2010/11,14,020,1.56054378,42.54229102
Armenia,2010/11,350,051,44.92993276,40.28952569
Austria,2010/11,"1,019",040,14.1264761,47.58549439
Azerbaijan,2010/11,440,031,47.54599879,40.28827235
Belarus,2010/11,347,112,28.03209307,53.53131377
Belgium,2010/11,904,056,4.64065114,50.63981576
Bosnia and Herzegovina,2010/11,356,070,17.76876733,44.17450125
Bulgaria,2010/11,"1,957",100,25.21552909,42.76890318
Croatia,2010/11,583,191,16.40412899,45.08047631
Cyprus,2010/11,470,196,33.0060022,34.91667211
Czech Republic,2010/11,765,,,
"Czechoslovakia, Former",2010/11,,,,
Denmark,2010/11,"1,149",208,10.02800992,55.98125296
Estonia,2010/11,228,233,25.54248537,58.67192972
Finland,2010/11,639,246,26.2746656,64.49884603
France,2010/11,"8,098",250,-2.76172945,42.17344011
Georgia,2010/11,460,268,43.50780252,42.16855755
Germany,2010/11,"9,458",276,10.38578051,51.10698181
Gibraltar,2010/11,2,292,,
Greece,2010/11,"1,874",300,22.95555794,39.07469623
Hungary,2010/11,670,348,19.39559116,47.16277506
Iceland,2010/11,369,352,-18.57396167,64.99575386
Ireland,2010/11,"1,167",372,-8.13793569,53.1754487
Italy,2010/11,"4,308",380,12.07001339,42.79662641
Kosovo,2010/11,121,,,
Latvia,2010/11,324,428,24.91235983,56.85085163
Liechtenstein,2010/11,5,438,9.53574312,47.13665835
Lithuania,2010/11,338,440,23.88719355,55.32610984
Luxembourg,2010/11,59,442,6.07182201,49.76725361
Macedonia,2010/11,257,,,
Malta,2010/11,19,470,14.40523316,35.92149632
Moldova,2010/11,411,,,
Monaco,2010/11,22,492,7.40627677,43.75274627
Montenegro,2010/11,85,499,19.23883939,42.78890259
Netherlands,2010/11,"1,833",528,5.28144793,52.1007899
Norway,2010/11,"1,822",578,15.34834656,68.75015572
Poland,2010/11,"1,852",616,19.39012835,52.12759564
Portugal,2010/11,981,620,-8.50104361,39.59550671
Romania,2010/11,"1,883",642,24.97293039,45.85243127
Russia,2010/11,"4,692",643,96.68656112,61.98052209
San Marino,2010/11,2,674,12.45922334,43.94186747
Serbia,2010/11,"1,067",688,20.78958334,44.2215032
Serbia & Montenegro,2010/11,,,,
Slovakia,2010/11,419,703,19.47905218,48.70547528
Slovenia,2010/11,178,705,14.80444238,46.11554772
Spain,2010/11,"4,330",724,-3.64755047,40.24448698
Sweden,2010/11,"3,236",752,16.74558049,62.77966519
Switzerland,2010/11,"1,287",756,8.20867471,46.79785878
Turkey,2010/11,"12,184",792,35.16895346,39.0616029
"U.S.S.R., Former",2010/11,,,,
Ukraine,2010/11,"1,583",804,31.38326469,48.99656673
United Kingdom,2010/11,"8,947",826,-2.86563164,54.12387156
Vatican City/Holy See,2010/11,4,,,
"Yugoslavia, Former",2010/11,,,,
"Europe, Unspecified",2010/11,31,,,
LATIN AMERICA & CARIBBEAN,2010/11,"64,564",,,
"Latin America & Caribbean, Unspecified",2010/11,0,,,
Caribbean,2010/11,"12,039",,,
Anguilla,2010/11,43,660,-63.06498927,18.2239595
Antigua and Barbuda,2010/11,193,028,-61.79469343,17.2774996
Aruba,2010/11,94,533,-69.98267711,12.52088038
Bahamas,2010/11,"1,720",044,-76.62843038,24.29036702
Barbados,2010/11,332,052,-59.559797,13.18145428
Bermuda,2010/11,395,060,-64.7545589,32.31367802
British Virgin Islands,2010/11,94,092,-64.47146992,18.52585755
Cayman Islands,2010/11,165,136,-80.91213321,19.42896497
Cuba,2010/11,62,192,-79.01605384,21.62289528
Curacao,2010/11,,,,
Dominica,2010/11,256,212,-61.357726,15.4394702
Dominican Republic,2010/11,"1,393",214,-70.50568896,18.89433082
Grenada,2010/11,189,308,-61.68220189,12.11725044
Guadeloupe,2010/11,14,312,,
Haiti,2010/11,888,332,-72.68527509,18.93502563
Jamaica,2010/11,"3,172",388,-77.31482593,18.15694878
Martinique,2010/11,8,474,,
Montserrat,2010/11,8,500,-62.18518546,16.73941406
Netherlands Antilles,2010/11,201,,,
St. Kitts and Nevis,2010/11,217,,,
St. Lucia,2010/11,526,,,
St. Vincent and the Grenadines,2010/11,105,,,
Sint Maarten,2010/11,,,,
Trinidad and Tobago,2010/11,"1,882",780,-61.26567923,10.45733408
Turks and Caicos,2010/11,82,,,
"Caribbean, Unspecified",2010/11,0,,,
Mexico and Central America,2010/11,"20,361",,,
Belize,2010/11,388,084,-88.71010486,17.20027509
Costa Rica,2010/11,"1,105",188,-84.19208768,9.97634464
El Salvador,2010/11,"1,157",222,-88.87164469,13.73943744
Guatemala,2010/11,"1,042",320,-90.36482009,15.69403664
Honduras,2010/11,"1,349",340,-86.6151661,14.82688165
Mexico,2010/11,"13,713",484,-102.52345169,23.94753724
Nicaragua,2010/11,434,558,-85.0305297,12.84709429
Panama,2010/11,"1,173",591,-80.11915156,8.51750797
"Mexico and Central America, Unspecified",2010/11,0,,,
South America,2010/11,"32,164",,,
Argentina,2010/11,"2,105",032,-65.17980692,-35.3813488
Bolivia,2010/11,977,068,-64.68538645,-16.70814787
Brazil,2010/11,"8,777",076,-53.09783113,-10.78777702
Chile,2010/11,"2,164",152,-71.38256213,-37.73070989
Colombia,2010/11,"6,456",170,-73.08114582,3.91383431
Ecuador,2010/11,"2,150",218,-78.75201922,-1.42381612
Falkland Islands,2010/11,0,,,
French Guiana,2010/11,28,254,,
Guyana,2010/11,272,328,-58.98202459,4.79378034
Paraguay,2010/11,322,600,-58.40013703,-23.22823913
Peru,2010/11,"2,939",604,-74.38242685,-9.15280381
Suriname,2010/11,94,740,-55.9123457,4.13055413
Uruguay,2010/11,389,858,-56.01807053,-32.79951534
Venezuela,2010/11,"5,491",862,-66.18184123,7.12422421
"South America, Unspecified",2010/11,0,,,
MIDDLE EAST & NORTH AFRICA,2010/11,"47,963",,,
MIDDLE EAST,2010/11,"42,543",,,
Bahrain,2010/11,409,048,50.54196932,26.04205135
Iran,2010/11,"5,626",364,54.27407004,32.57503292
Iraq,2010/11,616,368,43.74353149,33.03970582
Israel,2010/11,"2,701",376,35.00444693,31.46110101
Jordan,2010/11,"2,002",400,36.77136104,31.24579091
Kuwait,2010/11,"2,998",414,47.58700459,29.33431262
Lebanon,2010/11,"1,462",422,35.88016072,33.92306631
Oman,2010/11,313,512,56.09166155,20.60515333
Palestinian Territories,2010/11,331,,,
Qatar,2010/11,716,634,51.18479632,25.30601188
Saudi Arabia,2010/11,"22,704",682,44.53686271,24.12245841
Syria,2010/11,526,,,
United Arab Emirates,2010/11,"1,871",784,54.3001671,23.90528188
Yemen,2010/11,268,887,47.58676189,15.90928005
"Middle East, Unspecified",2010/11,0,,,
North Africa,2010/11,"5,420",,,
Algeria,2010/11,158,012,2.61732301,28.15893849
Egypt,2010/11,"2,181",818,29.86190099,26.49593311
Libya,2010/11,"1,494",434,18.00866169,27.03094495
Morocco,2010/11,"1,201",504,-8.45615795,29.83762955
Tunisia,2010/11,386,788,9.55288359,34.11956246
Western Sahara,2010/11,,732,-12.21982755,24.22956739
"North Africa, Unspecified",2010/11,0,,,
NORTH AMERICA,2010/11,"27,546",,,
Canada,2010/11,"27,546",124,-98.30777028,61.36206324
OCEANIA,2010/11,"5,610",,,
Australia,2010/11,"3,777",036,134.49100008,-25.73288704
Cook Islands,2010/11,4,184,-159.78724218,-21.21927288
Fiji,2010/11,138,242,165.45195432,-17.42858032
French Polynesia,2010/11,30,258,-144.90494387,-14.72227409
Kiribati,2010/11,31,296,-45.61110513,0.86001503
Marshall Islands,2010/11,52,584,170.33976122,7.00376358
Micronesia,2010/11,131,,,
Nauru,2010/11,11,520,166.93256823,-0.51912639
New Caledonia,2010/11,13,540,165.68492374,-21.29991806
New Zealand,2010/11,"1,164",554,171.48492347,-41.81113557
Niue,2010/11,8,570,-169.86994682,-19.04945708
Norfolk Island,2010/11,0,574,167.94921678,-29.0514609
Palau,2010/11,31,585,134.40807966,7.28742784
Papua New Guinea,2010/11,50,598,145.20744752,-6.46416646
Samoa,2010/11,49,882,-172.16485064,-13.75324346
Solomon Islands,2010/11,7,090,159.63287668,-8.92178022
Tonga,2010/11,103,776,-174.80987341,-20.42843174
Tuvalu,2010/11,2,798,,
Vanuatu,2010/11,8,548,167.68644636,-16.22640909
Wallis and Futuna,2010/11,1,,,
"Pacific Islands, Unspecified",2010/11,0,,,
Stateless,2010/11,10,,,
WORLD TOTAL,2010/11,"723,277",,,
"AFRICA, SUB-SAHARAN",2011/12,"30,046",,,
"Africa, Sub-saharan, Unspecified",2011/12,0,,,
East Africa,2011/12,"7,827",,,
Burundi,2011/12,103,108,29.87512156,-3.35939666
Djibouti,2011/12,8,262,42.5606754,11.74871806
Eritrea,2011/12,110,232,38.84617011,15.36186618
Ethiopia,2011/12,"1,334",231,39.60080098,8.62278679
Kenya,2011/12,"3,898",404,37.79593973,0.59988022
Rwanda,2011/12,465,646,29.91988515,-1.99033832
Seychelles,2011/12,10,690,55.47603279,-4.66099094
Somalia,2011/12,34,706,45.70714487,4.75062876
South Sudan,2011/12,,728,30.24790002,7.30877945
Sudan,2011/12,180,729,29.94046812,15.99035669
Tanzania,2011/12,906,,,
Uganda,2011/12,779,800,32.36907971,1.27469299
"East Africa, Unspecified",2011/12,0,,,
Central Africa,2011/12,"2,778",,,
Cameroon,2011/12,"1,530",120,12.73964156,5.69109849
Central African Republic,2011/12,28,140,20.46826831,6.56823297
Chad,2011/12,84,148,18.64492513,15.33333758
"Congo, Republic of the (Brazzaville)",2011/12,249,,,
"Congo, Dem. Rep. of the (Kinshasa)",2011/12,320,,,
Equatorial Guinea,2011/12,164,226,10.34137924,1.70555135
Gabon,2011/12,402,266,11.7886287,-0.58660025
São Tomé & Príncipe,2011/12,1,,,
"Central Africa, Unspecified",2011/12,0,,,
Southern Africa,2011/12,"5,196",,,
Angola,2011/12,779,024,17.53736768,-12.29336054
Botswana,2011/12,175,072,23.79853368,-22.18403213
Comoros,2011/12,9,174,43.68253968,-11.87783444
Eswatini,2011/12,154,,,
Lesotho,2011/12,46,426,28.22723131,-29.58003188
Madagascar,2011/12,133,450,46.70473674,-19.37189587
Malawi,2011/12,258,454,34.28935599,-13.21808088
Mauritius,2011/12,205,480,57.57120551,-20.27768704
Mozambique,2011/12,67,508,35.53367543,-17.27381643
Namibia,2011/12,63,516,17.20963567,-22.13032568
Reunion,2011/12,1,,,
South Africa,2011/12,"1,610",710,25.08390093,-29.00034095
Zambia,2011/12,535,894,27.77475946,-13.45824152
Zimbabwe,2011/12,"1,161",716,29.8514412,-19.00420419
"Southern Africa, Unspecified",2011/12,0,,,
West Africa,2011/12,"14,245",,,
Benin,2011/12,313,204,2.32785254,9.6417597
Burkina Faso,2011/12,631,854,-1.75456601,12.26953846
Cabo Verde/Cape Verde,2011/12,87,,,
Côte d’Ivoire/Ivory Coast,2011/12,955,384,-5.5692157,7.6284262
Gambia,2011/12,383,270,-15.39601295,13.44965244
Ghana,2011/12,"2,769",288,-1.21676566,7.95345644
Guinea,2011/12,104,324,-10.94066612,10.43621593
Guinea-Bissau,2011/12,12,624,-14.94972445,12.04744948
Liberia,2011/12,159,430,-9.32207573,6.45278492
Mali,2011/12,402,466,-3.54269065,17.34581581
Mauritania,2011/12,61,478,-10.34779815,20.25736706
Niger,2011/12,279,562,9.38545882,17.41912493
Nigeria,2011/12,"7,028",566,8.08943895,9.59411452
Saint Helena,2011/12,1,654,-9.54779416,-12.40355951
Senegal,2011/12,681,686,-14.4734924,14.36624173
Sierra Leone,2011/12,130,694,-11.79271247,8.56329593
Togo,2011/12,250,768,0.96232845,8.52531356
"West Africa, Unspecified",2011/12,0,,,
ASIA,2011/12,"489,970",,,
"Asia, Unspecified",2011/12,0,,,
East Asia,2011/12,"319,515",,,
China,2011/12,"194,029",156,103.81907349,36.56176546
Hong Kong,2011/12,"8,032",364,54.27407004,32.57503292
Japan,2011/12,"19,966",392,138.03089558,37.59230135
Macau,2011/12,505,,,
Mongolia,2011/12,"1,423",496,103.05299765,46.82681544
North Korea,2011/12,15,408,127.19247973,40.15350311
South Korea,2011/12,"72,295",410,127.83916086,36.38523983
Taiwan,2011/12,"23,250",158,120.95427281,23.7539928
"East Asia, Unspecified",2011/12,0,,,
South and Central Asia,2011/12,"124,392",,,
Afghanistan,2011/12,371,004,66.00473366,33.83523073
Bangladesh,2011/12,"3,314",050,90.23812743,23.86731158
Bhutan,2011/12,100,064,90.40188155,27.41106589
India,2011/12,"100,270",356,79.6119761,22.88578212
Kazakhstan,2011/12,"1,938",398,67.29149357,48.15688067
Kyrgyzstan,2011/12,254,417,74.54165513,41.46221943
Maldives,2011/12,29,462,73.45713004,3.7287092
Nepal,2011/12,"9,621",524,83.9158264,28.24891365
Pakistan,2011/12,"4,600",586,69.33957937,29.9497515
Sri Lanka,2011/12,"2,902",144,80.70108238,7.61266509
Tajikistan,2011/12,298,762,71.01362631,38.5304539
Turkmenistan,2011/12,209,795,59.37100021,39.11554137
Uzbekistan,2011/12,486,860,63.14001528,41.75554225
"South and Central Asia, Unspecified",2011/12,0,,,
Southeast Asia,2011/12,"46,063",,,
Brunei,2011/12,69,,,
Cambodia,2011/12,333,116,104.90694325,12.72004786
Indonesia,2011/12,"7,131",360,117.24011366,-2.21505456
Laos,2011/12,43,,,
Malaysia,2011/12,"6,743",458,109.69762284,3.78986846
Myanmar,2011/12,807,104,96.48843321,21.18566599
Philippines,2011/12,"3,194",608,122.88393253,11.77536778
Singapore,2011/12,"4,505",702,103.81725592,1.35876087
Thailand,2011/12,"7,626",764,101.0028813,15.11815794
Timor-Leste/East Timor,2011/12,40,,,
Vietnam,2011/12,"15,572",704,106.29914698,16.6460167
"Southeast Asia, Unspecified",2011/12,0,,,
EUROPE,2011/12,"85,423",,,
Albania,2011/12,659,008,20.04983396,41.14244989
Andorra,2011/12,24,020,1.56054378,42.54229102
Armenia,2011/12,363,051,44.92993276,40.28952569
Austria,2011/12,989,040,14.1264761,47.58549439
Azerbaijan,2011/12,460,031,47.54599879,40.28827235
Belarus,2011/12,358,112,28.03209307,53.53131377
Belgium,2011/12,880,056,4.64065114,50.63981576
Bosnia and Herzegovina,2011/12,341,070,17.76876733,44.17450125
Bulgaria,2011/12,"1,694",100,25.21552909,42.76890318
Croatia,2011/12,552,191,16.40412899,45.08047631
Cyprus,2011/12,438,196,33.0060022,34.91667211
Czech Republic,2011/12,701,,,
"Czechoslovakia, Former",2011/12,,,,
Denmark,2011/12,"1,233",208,10.02800992,55.98125296
Estonia,2011/12,241,233,25.54248537,58.67192972
Finland,2011/12,640,246,26.2746656,64.49884603
France,2011/12,"8,232",250,-2.76172945,42.17344011
Georgia,2011/12,481,268,43.50780252,42.16855755
Germany,2011/12,"9,347",276,10.38578051,51.10698181
Gibraltar,2011/12,4,292,,
Greece,2011/12,"1,922",300,22.95555794,39.07469623
Hungary,2011/12,655,348,19.39559116,47.16277506
Iceland,2011/12,391,352,-18.57396167,64.99575386
Ireland,2011/12,"1,106",372,-8.13793569,53.1754487
Italy,2011/12,"4,284",380,12.07001339,42.79662641
Kosovo,2011/12,114,,,
Latvia,2011/12,308,428,24.91235983,56.85085163
Liechtenstein,2011/12,14,438,9.53574312,47.13665835
Lithuania,2011/12,288,440,23.88719355,55.32610984
Luxembourg,2011/12,68,442,6.07182201,49.76725361
Macedonia,2011/12,222,,,
Malta,2011/12,41,470,14.40523316,35.92149632
Moldova,2011/12,416,,,
Monaco,2011/12,43,492,7.40627677,43.75274627
Montenegro,2011/12,112,499,19.23883939,42.78890259
Netherlands,2011/12,"1,975",528,5.28144793,52.1007899
Norway,2011/12,"2,016",578,15.34834656,68.75015572
Poland,2011/12,"1,838",616,19.39012835,52.12759564
Portugal,2011/12,970,620,-8.50104361,39.59550671
Romania,2011/12,"1,607",642,24.97293039,45.85243127
Russia,2011/12,"4,805",643,96.68656112,61.98052209
San Marino,2011/12,3,674,12.45922334,43.94186747
Serbia,2011/12,"1,068",688,20.78958334,44.2215032
Serbia & Montenegro,2011/12,,,,
Slovakia,2011/12,424,703,19.47905218,48.70547528
Slovenia,2011/12,171,705,14.80444238,46.11554772
Spain,2011/12,"4,924",724,-3.64755047,40.24448698
Sweden,2011/12,"3,926",752,16.74558049,62.77966519
Switzerland,2011/12,"1,362",756,8.20867471,46.79785878
Turkey,2011/12,"11,973",792,35.16895346,39.0616029
"U.S.S.R., Former",2011/12,,,,
Ukraine,2011/12,"1,535",804,31.38326469,48.99656673
United Kingdom,2011/12,"9,186",826,-2.86563164,54.12387156
Vatican City/Holy See,2011/12,1,,,
"Yugoslavia, Former",2011/12,,,,
"Europe, Unspecified",2011/12,18,,,
LATIN AMERICA & CARIBBEAN,2011/12,"64,410",,,
"Latin America & Caribbean, Unspecified",2011/12,0,,,
Caribbean,2011/12,"11,376",,,
Anguilla,2011/12,29,660,-63.06498927,18.2239595
Antigua and Barbuda,2011/12,183,028,-61.79469343,17.2774996
Aruba,2011/12,67,533,-69.98267711,12.52088038
Bahamas,2011/12,"1,737",044,-76.62843038,24.29036702
Barbados,2011/12,267,052,-59.559797,13.18145428
Bermuda,2011/12,389,060,-64.7545589,32.31367802
British Virgin Islands,2011/12,116,092,-64.47146992,18.52585755
Cayman Islands,2011/12,181,136,-80.91213321,19.42896497
Cuba,2011/12,57,192,-79.01605384,21.62289528
Curacao,2011/12,,,,
Dominica,2011/12,261,212,-61.357726,15.4394702
Dominican Republic,2011/12,"1,610",214,-70.50568896,18.89433082
Grenada,2011/12,261,308,-61.68220189,12.11725044
Guadeloupe,2011/12,15,312,,
Haiti,2011/12,889,332,-72.68527509,18.93502563
Jamaica,2011/12,"2,694",388,-77.31482593,18.15694878
Martinique,2011/12,3,474,,
Montserrat,2011/12,2,500,-62.18518546,16.73941406
Netherlands Antilles,2011/12,155,,,
St. Kitts and Nevis,2011/12,269,,,
St. Lucia,2011/12,352,,,
St. Vincent and the Grenadines,2011/12,95,,,
Sint Maarten,2011/12,,,,
Trinidad and Tobago,2011/12,"1,689",780,-61.26567923,10.45733408
Turks and Caicos,2011/12,55,,,
"Caribbean, Unspecified",2011/12,0,,,
Mexico and Central America,2011/12,"20,432",,,
Belize,2011/12,370,084,-88.71010486,17.20027509
Costa Rica,2011/12,"1,078",188,-84.19208768,9.97634464
El Salvador,2011/12,"1,151",222,-88.87164469,13.73943744
Guatemala,2011/12,"1,048",320,-90.36482009,15.69403664
Honduras,2011/12,"1,407",340,-86.6151661,14.82688165
Mexico,2011/12,"13,893",484,-102.52345169,23.94753724
Nicaragua,2011/12,363,558,-85.0305297,12.84709429
Panama,2011/12,"1,122",591,-80.11915156,8.51750797
"Mexico and Central America, Unspecified",2011/12,0,,,
South America,2011/12,"32,602",,,
Argentina,2011/12,"1,888",032,-65.17980692,-35.3813488
Bolivia,2011/12,"1,025",068,-64.68538645,-16.70814787
Brazil,2011/12,"9,029",076,-53.09783113,-10.78777702
Chile,2011/12,"2,203",152,-71.38256213,-37.73070989
Colombia,2011/12,"6,295",170,-73.08114582,3.91383431
Ecuador,2011/12,"2,160",218,-78.75201922,-1.42381612
Falkland Islands,2011/12,0,,,
French Guiana,2011/12,1,254,,
Guyana,2011/12,224,328,-58.98202459,4.79378034
Paraguay,2011/12,342,600,-58.40013703,-23.22823913
Peru,2011/12,"2,702",604,-74.38242685,-9.15280381
Suriname,2011/12,92,740,-55.9123457,4.13055413
Uruguay,2011/12,360,858,-56.01807053,-32.79951534
Venezuela,2011/12,"6,281",862,-66.18184123,7.12422421
"South America, Unspecified",2011/12,0,,,
MIDDLE EAST & NORTH AFRICA,2011/12,"62,120",,,
MIDDLE EAST,2011/12,"56,664",,,
Bahrain,2011/12,438,048,50.54196932,26.04205135
Iran,2011/12,"6,982",364,54.27407004,32.57503292
Iraq,2011/12,809,368,43.74353149,33.03970582
Israel,2011/12,"2,490",376,35.00444693,31.46110101
Jordan,2011/12,"2,062",400,36.77136104,31.24579091
Kuwait,2011/12,"3,722",414,47.58700459,29.33431262
Lebanon,2011/12,"1,350",422,35.88016072,33.92306631
Oman,2011/12,538,512,56.09166155,20.60515333
Palestinian Territories,2011/12,331,,,
Qatar,2011/12,979,634,51.18479632,25.30601188
Saudi Arabia,2011/12,"34,139",682,44.53686271,24.12245841
Syria,2011/12,458,,,
United Arab Emirates,2011/12,"2,097",784,54.3001671,23.90528188
Yemen,2011/12,269,887,47.58676189,15.90928005
"Middle East, Unspecified",2011/12,0,,,
North Africa,2011/12,"5,456",,,
Algeria,2011/12,177,012,2.61732301,28.15893849
Egypt,2011/12,"2,201",818,29.86190099,26.49593311
Libya,2011/12,"1,328",434,18.00866169,27.03094495
Morocco,2011/12,"1,305",504,-8.45615795,29.83762955
Tunisia,2011/12,445,788,9.55288359,34.11956246
Western Sahara,2011/12,,732,-12.21982755,24.22956739
"North Africa, Unspecified",2011/12,0,,,
NORTH AMERICA,2011/12,"26,821",,,
Canada,2011/12,"26,821",124,-98.30777028,61.36206324
OCEANIA,2011/12,"5,697",,,
Australia,2011/12,"3,848",036,134.49100008,-25.73288704
Cook Islands,2011/12,6,184,-159.78724218,-21.21927288
Fiji,2011/12,122,242,165.45195432,-17.42858032
French Polynesia,2011/12,42,258,-144.90494387,-14.72227409
Kiribati,2011/12,48,296,-45.61110513,0.86001503
Marshall Islands,2011/12,39,584,170.33976122,7.00376358
Micronesia,2011/12,98,,,
Nauru,2011/12,7,520,166.93256823,-0.51912639
New Caledonia,2011/12,8,540,165.68492374,-21.29991806
New Zealand,2011/12,"1,204",554,171.48492347,-41.81113557
Niue,2011/12,8,570,-169.86994682,-19.04945708
Norfolk Island,2011/12,0,574,167.94921678,-29.0514609
Palau,2011/12,21,585,134.40807966,7.28742784
Papua New Guinea,2011/12,60,598,145.20744752,-6.46416646
Samoa,2011/12,51,882,-172.16485064,-13.75324346
Solomon Islands,2011/12,13,090,159.63287668,-8.92178022
Tonga,2011/12,104,776,-174.80987341,-20.42843174
Tuvalu,2011/12,3,798,,
Vanuatu,2011/12,8,548,167.68644636,-16.22640909
Wallis and Futuna,2011/12,7,,,
"Pacific Islands, Unspecified",2011/12,0,,,
Stateless,2011/12,8,,,
WORLD TOTAL,2011/12,"764,495",,,
"AFRICA, SUB-SAHARAN",2012/13,"30,585",,,
"Africa, Sub-saharan, Unspecified",2012/13,0,,,
East Africa,2012/13,"7,761",,,
Burundi,2012/13,124,108,29.87512156,-3.35939666
Djibouti,2012/13,13,262,42.5606754,11.74871806
Eritrea,2012/13,106,232,38.84617011,15.36186618
Ethiopia,2012/13,"1,463",231,39.60080098,8.62278679
Kenya,2012/13,"3,516",404,37.79593973,0.59988022
Rwanda,2012/13,565,646,29.91988515,-1.99033832
Seychelles,2012/13,16,690,55.47603279,-4.66099094
Somalia,2012/13,30,706,45.70714487,4.75062876
South Sudan,2012/13,8,728,30.24790002,7.30877945
Sudan,2012/13,187,729,29.94046812,15.99035669
Tanzania,2012/13,950,,,
Uganda,2012/13,783,800,32.36907971,1.27469299
"East Africa, Unspecified",2012/13,0,,,
Central Africa,2012/13,"2,861",,,
Cameroon,2012/13,"1,472",120,12.73964156,5.69109849
Central African Republic,2012/13,28,140,20.46826831,6.56823297
Chad,2012/13,89,148,18.64492513,15.33333758
"Congo, Republic of the (Brazzaville)",2012/13,309,,,
"Congo, Dem. Rep. of the (Kinshasa)",2012/13,386,,,
Equatorial Guinea,2012/13,196,226,10.34137924,1.70555135
Gabon,2012/13,378,266,11.7886287,-0.58660025
São Tomé & Príncipe,2012/13,3,,,
"Central Africa, Unspecified",2012/13,0,,,
Southern Africa,2012/13,"5,511",,,
Angola,2012/13,812,024,17.53736768,-12.29336054
Botswana,2012/13,216,072,23.79853368,-22.18403213
Comoros,2012/13,19,174,43.68253968,-11.87783444
Eswatini,2012/13,182,,,
Lesotho,2012/13,41,426,28.22723131,-29.58003188
Madagascar,2012/13,124,450,46.70473674,-19.37189587
Malawi,2012/13,252,454,34.28935599,-13.21808088
Mauritius,2012/13,228,480,57.57120551,-20.27768704
Mozambique,2012/13,88,508,35.53367543,-17.27381643
Namibia,2012/13,65,516,17.20963567,-22.13032568
Reunion,2012/13,2,,,
South Africa,2012/13,"1,816",710,25.08390093,-29.00034095
Zambia,2012/13,496,894,27.77475946,-13.45824152
Zimbabwe,2012/13,"1,170",716,29.8514412,-19.00420419
"Southern Africa, Unspecified",2012/13,0,,,
West Africa,2012/13,"14,452",,,
Benin,2012/13,318,204,2.32785254,9.6417597
Burkina Faso,2012/13,627,854,-1.75456601,12.26953846
Cabo Verde/Cape Verde,2012/13,81,,,
Côte d’Ivoire/Ivory Coast,2012/13,980,384,-5.5692157,7.6284262
Gambia,2012/13,328,270,-15.39601295,13.44965244
Ghana,2012/13,"2,863",288,-1.21676566,7.95345644
Guinea,2012/13,79,324,-10.94066612,10.43621593
Guinea-Bissau,2012/13,10,624,-14.94972445,12.04744948
Liberia,2012/13,172,430,-9.32207573,6.45278492
Mali,2012/13,383,466,-3.54269065,17.34581581
Mauritania,2012/13,71,478,-10.34779815,20.25736706
Niger,2012/13,194,562,9.38545882,17.41912493
Nigeria,2012/13,"7,316",566,8.08943895,9.59411452
Saint Helena,2012/13,1,654,-9.54779416,-12.40355951
Senegal,2012/13,688,686,-14.4734924,14.36624173
Sierra Leone,2012/13,123,694,-11.79271247,8.56329593
Togo,2012/13,218,768,0.96232845,8.52531356
"West Africa, Unspecified",2012/13,0,,,
ASIA,2012/13,"525,849",,,
"Asia, Unspecified",2012/13,1,,,
East Asia,2012/13,"357,596",,,
China,2012/13,"235,597",156,103.81907349,36.56176546
Hong Kong,2012/13,"8,026",364,54.27407004,32.57503292
Japan,2012/13,"19,568",392,138.03089558,37.59230135
Macau,2012/13,533,,,
Mongolia,2012/13,"1,361",496,103.05299765,46.82681544
North Korea,2012/13,17,408,127.19247973,40.15350311
South Korea,2012/13,"70,627",410,127.83916086,36.38523983
Taiwan,2012/13,"21,867",158,120.95427281,23.7539928
"East Asia, Unspecified",2012/13,0,,,
South and Central Asia,2012/13,"121,100",,,
Afghanistan,2012/13,449,004,66.00473366,33.83523073
Bangladesh,2012/13,"3,828",050,90.23812743,23.86731158
Bhutan,2012/13,133,064,90.40188155,27.41106589
India,2012/13,"96,754",356,79.6119761,22.88578212
Kazakhstan,2012/13,"1,969",398,67.29149357,48.15688067
Kyrgyzstan,2012/13,261,417,74.54165513,41.46221943
Maldives,2012/13,33,462,73.45713004,3.7287092
Nepal,2012/13,"8,920",524,83.9158264,28.24891365
Pakistan,2012/13,"4,772",586,69.33957937,29.9497515
Sri Lanka,2012/13,"3,046",144,80.70108238,7.61266509
Tajikistan,2012/13,312,762,71.01362631,38.5304539
Turkmenistan,2012/13,178,795,59.37100021,39.11554137
Uzbekistan,2012/13,445,860,63.14001528,41.75554225
"South and Central Asia, Unspecified",2012/13,0,,,
Southeast Asia,2012/13,"47,152",,,
Brunei,2012/13,61,,,
Cambodia,2012/13,393,116,104.90694325,12.72004786
Indonesia,2012/13,"7,670",360,117.24011366,-2.21505456
Laos,2012/13,50,,,
Malaysia,2012/13,"6,791",458,109.69762284,3.78986846
Myanmar,2012/13,955,104,96.48843321,21.18566599
Philippines,2012/13,"3,215",608,122.88393253,11.77536778
Singapore,2012/13,"4,558",702,103.81725592,1.35876087
Thailand,2012/13,"7,314",764,101.0028813,15.11815794
Timor-Leste/East Timor,2012/13,47,,,
Vietnam,2012/13,"16,098",704,106.29914698,16.6460167
"Southeast Asia, Unspecified",2012/13,0,,,
EUROPE,2012/13,"85,823",,,
Albania,2012/13,649,008,20.04983396,41.14244989
Andorra,2012/13,13,020,1.56054378,42.54229102
Armenia,2012/13,345,051,44.92993276,40.28952569
Austria,2012/13,"1,036",040,14.1264761,47.58549439
Azerbaijan,2012/13,388,031,47.54599879,40.28827235
Belarus,2012/13,355,112,28.03209307,53.53131377
Belgium,2012/13,894,056,4.64065114,50.63981576
Bosnia and Herzegovina,2012/13,364,070,17.76876733,44.17450125
Bulgaria,2012/13,"1,473",100,25.21552909,42.76890318
Croatia,2012/13,581,191,16.40412899,45.08047631
Cyprus,2012/13,425,196,33.0060022,34.91667211
Czech Republic,2012/13,776,,,
"Czechoslovakia, Former",2012/13,,,,
Denmark,2012/13,"1,359",208,10.02800992,55.98125296
Estonia,2012/13,218,233,25.54248537,58.67192972
Finland,2012/13,691,246,26.2746656,64.49884603
France,2012/13,"8,297",250,-2.76172945,42.17344011
Georgia,2012/13,456,268,43.50780252,42.16855755
Germany,2012/13,"9,819",276,10.38578051,51.10698181
Gibraltar,2012/13,4,292,,
Greece,2012/13,"2,046",300,22.95555794,39.07469623
Hungary,2012/13,690,348,19.39559116,47.16277506
Iceland,2012/13,384,352,-18.57396167,64.99575386
Ireland,2012/13,"1,158",372,-8.13793569,53.1754487
Italy,2012/13,"4,276",380,12.07001339,42.79662641
Kosovo,2012/13,106,,,
Latvia,2012/13,295,428,24.91235983,56.85085163
Liechtenstein,2012/13,7,438,9.53574312,47.13665835
Lithuania,2012/13,284,440,23.88719355,55.32610984
Luxembourg,2012/13,87,442,6.07182201,49.76725361
Macedonia,2012/13,237,,,
Malta,2012/13,51,470,14.40523316,35.92149632
Moldova,2012/13,379,,,
Monaco,2012/13,21,492,7.40627677,43.75274627
Montenegro,2012/13,109,499,19.23883939,42.78890259
Netherlands,2012/13,"1,948",528,5.28144793,52.1007899
Norway,2012/13,"2,097",578,15.34834656,68.75015572
Poland,2012/13,"1,581",616,19.39012835,52.12759564
Portugal,2012/13,949,620,-8.50104361,39.59550671
Romania,2012/13,"1,460",642,24.97293039,45.85243127
Russia,2012/13,"4,898",643,96.68656112,61.98052209
San Marino,2012/13,3,674,12.45922334,43.94186747
Serbia,2012/13,"1,041",688,20.78958334,44.2215032
Serbia & Montenegro,2012/13,,,,
Slovakia,2012/13,362,703,19.47905218,48.70547528
Slovenia,2012/13,227,705,14.80444238,46.11554772
Spain,2012/13,"5,033",724,-3.64755047,40.24448698
Sweden,2012/13,"4,283",752,16.74558049,62.77966519
Switzerland,2012/13,"1,420",756,8.20867471,46.79785878
Turkey,2012/13,"11,278",792,35.16895346,39.0616029
"U.S.S.R., Former",2012/13,,,,
Ukraine,2012/13,"1,490",804,31.38326469,48.99656673
United Kingdom,2012/13,"9,467",826,-2.86563164,54.12387156
Vatican City/Holy See,2012/13,1,,,
"Yugoslavia, Former",2012/13,,,,
"Europe, Unspecified",2012/13,12,,,
LATIN AMERICA & CARIBBEAN,2012/13,"66,864",,,
"Latin America & Caribbean, Unspecified",2012/13,0,,,
Caribbean,2012/13,"11,100",,,
Anguilla,2012/13,15,660,-63.06498927,18.2239595
Antigua and Barbuda,2012/13,188,028,-61.79469343,17.2774996
Aruba,2012/13,69,533,-69.98267711,12.52088038
Bahamas,2012/13,"1,629",044,-76.62843038,24.29036702
Barbados,2012/13,293,052,-59.559797,13.18145428
Bermuda,2012/13,406,060,-64.7545589,32.31367802
British Virgin Islands,2012/13,112,092,-64.47146992,18.52585755
Cayman Islands,2012/13,175,136,-80.91213321,19.42896497
Cuba,2012/13,76,192,-79.01605384,21.62289528
Curacao,2012/13,4,,,
Dominica,2012/13,237,212,-61.357726,15.4394702
Dominican Republic,2012/13,"1,803",214,-70.50568896,18.89433082
Grenada,2012/13,225,308,-61.68220189,12.11725044
Guadeloupe,2012/13,11,312,,
Haiti,2012/13,934,332,-72.68527509,18.93502563
Jamaica,2012/13,"2,499",388,-77.31482593,18.15694878
Martinique,2012/13,4,474,,
Montserrat,2012/13,3,500,-62.18518546,16.73941406
Netherlands Antilles,2012/13,194,,,
St. Kitts and Nevis,2012/13,234,,,
St. Lucia,2012/13,330,,,
St. Vincent and the Grenadines,2012/13,98,,,
Sint Maarten,2012/13,,,,
Trinidad and Tobago,2012/13,"1,532",780,-61.26567923,10.45733408
Turks and Caicos,2012/13,29,,,
"Caribbean, Unspecified",2012/13,0,,,
Mexico and Central America,2012/13,"21,072",,,
Belize,2012/13,333,084,-88.71010486,17.20027509
Costa Rica,2012/13,"1,074",188,-84.19208768,9.97634464
El Salvador,2012/13,"1,172",222,-88.87164469,13.73943744
Guatemala,2012/13,"1,113",320,-90.36482009,15.69403664
Honduras,2012/13,"1,513",340,-86.6151661,14.82688165
Mexico,2012/13,"14,199",484,-102.52345169,23.94753724
Nicaragua,2012/13,434,558,-85.0305297,12.84709429
Panama,2012/13,"1,234",591,-80.11915156,8.51750797
"Mexico and Central America, Unspecified",2012/13,0,,,
South America,2012/13,"34,692",,,
Argentina,2012/13,"1,847",032,-65.17980692,-35.3813488
Bolivia,2012/13,"1,024",068,-64.68538645,-16.70814787
Brazil,2012/13,"10,868",076,-53.09783113,-10.78777702
Chile,2012/13,"2,349",152,-71.38256213,-37.73070989
Colombia,2012/13,"6,543",170,-73.08114582,3.91383431
Ecuador,2012/13,"2,299",218,-78.75201922,-1.42381612
Falkland Islands,2012/13,7,,,
French Guiana,2012/13,4,254,,
Guyana,2012/13,206,328,-58.98202459,4.79378034
Paraguay,2012/13,395,600,-58.40013703,-23.22823913
Peru,2012/13,"2,539",604,-74.38242685,-9.15280381
Suriname,2012/13,88,740,-55.9123457,4.13055413
Uruguay,2012/13,365,858,-56.01807053,-32.79951534
Venezuela,2012/13,"6,158",862,-66.18184123,7.12422421
"South America, Unspecified",2012/13,0,,,
MIDDLE EAST & NORTH AFRICA,2012/13,"77,049",,,
MIDDLE EAST,2012/13,"71,170",,,
Bahrain,2012/13,459,048,50.54196932,26.04205135
Iran,2012/13,"8,744",364,54.27407004,32.57503292
Iraq,2012/13,"1,074",368,43.74353149,33.03970582
Israel,2012/13,"2,430",376,35.00444693,31.46110101
Jordan,2012/13,"2,109",400,36.77136104,31.24579091
Kuwait,2012/13,"5,115",414,47.58700459,29.33431262
Lebanon,2012/13,"1,266",422,35.88016072,33.92306631
Oman,2012/13,980,512,56.09166155,20.60515333
Palestinian Territories,2012/13,319,,,
Qatar,2012/13,994,634,51.18479632,25.30601188
Saudi Arabia,2012/13,"44,566",682,44.53686271,24.12245841
Syria,2012/13,505,,,
United Arab Emirates,2012/13,"2,256",784,54.3001671,23.90528188
Yemen,2012/13,353,887,47.58676189,15.90928005
"Middle East, Unspecified",2012/13,0,,,
North Africa,2012/13,"5,879",,,
Algeria,2012/13,176,012,2.61732301,28.15893849
Egypt,2012/13,"2,608",818,29.86190099,26.49593311
Libya,2012/13,"1,343",434,18.00866169,27.03094495
Morocco,2012/13,"1,293",504,-8.45615795,29.83762955
Tunisia,2012/13,459,788,9.55288359,34.11956246
Western Sahara,2012/13,,732,-12.21982755,24.22956739
"North Africa, Unspecified",2012/13,0,,,
NORTH AMERICA,2012/13,"27,357",,,
Canada,2012/13,"27,357",124,-98.30777028,61.36206324
OCEANIA,2012/13,"6,104",,,
Australia,2012/13,"4,121",036,134.49100008,-25.73288704
Cook Islands,2012/13,7,184,-159.78724218,-21.21927288
Fiji,2012/13,136,242,165.45195432,-17.42858032
French Polynesia,2012/13,37,258,-144.90494387,-14.72227409
Kiribati,2012/13,70,296,-45.61110513,0.86001503
Marshall Islands,2012/13,42,584,170.33976122,7.00376358
Micronesia,2012/13,88,,,
Nauru,2012/13,1,520,166.93256823,-0.51912639
New Caledonia,2012/13,7,540,165.68492374,-21.29991806
New Zealand,2012/13,"1,311",554,171.48492347,-41.81113557
Niue,2012/13,7,570,-169.86994682,-19.04945708
Norfolk Island,2012/13,0,574,167.94921678,-29.0514609
Palau,2012/13,20,585,134.40807966,7.28742784
Papua New Guinea,2012/13,78,598,145.20744752,-6.46416646
Samoa,2012/13,53,882,-172.16485064,-13.75324346
Solomon Islands,2012/13,10,090,159.63287668,-8.92178022
Tonga,2012/13,105,776,-174.80987341,-20.42843174
Tuvalu,2012/13,2,798,,
Vanuatu,2012/13,7,548,167.68644636,-16.22640909
Wallis and Futuna,2012/13,2,,,
"Pacific Islands, Unspecified",2012/13,0,,,
Stateless,2012/13,13,,,
WORLD TOTAL,2012/13,"819,644",,,
"AFRICA, SUB-SAHARAN",2013/14,"31,113",,,
"Africa, Sub-saharan, Unspecified",2013/14,0,,,
East Africa,2013/14,"7,549",,,
Burundi,2013/14,122,108,29.87512156,-3.35939666
Djibouti,2013/14,7,262,42.5606754,11.74871806
Eritrea,2013/14,97,232,38.84617011,15.36186618
Ethiopia,2013/14,"1,516",231,39.60080098,8.62278679
Kenya,2013/14,"3,201",404,37.79593973,0.59988022
Rwanda,2013/14,720,646,29.91988515,-1.99033832
Seychelles,2013/14,16,690,55.47603279,-4.66099094
Somalia,2013/14,15,706,45.70714487,4.75062876
South Sudan,2013/14,18,728,30.24790002,7.30877945
Sudan,2013/14,186,729,29.94046812,15.99035669
Tanzania,2013/14,889,,,
Uganda,2013/14,762,800,32.36907971,1.27469299
"East Africa, Unspecified",2013/14,0,,,
Central Africa,2013/14,"2,883",,,
Cameroon,2013/14,"1,285",120,12.73964156,5.69109849
Central African Republic,2013/14,11,140,20.46826831,6.56823297
Chad,2013/14,81,148,18.64492513,15.33333758
"Congo, Republic of the (Brazzaville)",2013/14,282,,,
"Congo, Dem. Rep. of the (Kinshasa)",2013/14,571,,,
Equatorial Guinea,2013/14,253,226,10.34137924,1.70555135
Gabon,2013/14,397,266,11.7886287,-0.58660025
São Tomé & Príncipe,2013/14,3,,,
"Central Africa, Unspecified",2013/14,0,,,
Southern Africa,2013/14,"5,683",,,
Angola,2013/14,985,024,17.53736768,-12.29336054
Botswana,2013/14,228,072,23.79853368,-22.18403213
Comoros,2013/14,27,174,43.68253968,-11.87783444
Eswatini,2013/14,177,,,
Lesotho,2013/14,41,426,28.22723131,-29.58003188
Madagascar,2013/14,151,450,46.70473674,-19.37189587
Malawi,2013/14,275,454,34.28935599,-13.21808088
Mauritius,2013/14,221,480,57.57120551,-20.27768704
Mozambique,2013/14,91,508,35.53367543,-17.27381643
Namibia,2013/14,61,516,17.20963567,-22.13032568
Reunion,2013/14,2,,,
South Africa,2013/14,"1,716",710,25.08390093,-29.00034095
Zambia,2013/14,502,894,27.77475946,-13.45824152
Zimbabwe,2013/14,"1,206",716,29.8514412,-19.00420419
"Southern Africa, Unspecified",2013/14,0,,,
West Africa,2013/14,"14,998",,,
Benin,2013/14,291,204,2.32785254,9.6417597
Burkina Faso,2013/14,526,854,-1.75456601,12.26953846
Cabo Verde/Cape Verde,2013/14,69,,,
Côte d’Ivoire/Ivory Coast,2013/14,"1,116",384,-5.5692157,7.6284262
Gambia,2013/14,300,270,-15.39601295,13.44965244
Ghana,2013/14,"2,914",288,-1.21676566,7.95345644
Guinea,2013/14,80,324,-10.94066612,10.43621593
Guinea-Bissau,2013/14,15,624,-14.94972445,12.04744948
Liberia,2013/14,161,430,-9.32207573,6.45278492
Mali,2013/14,315,466,-3.54269065,17.34581581
Mauritania,2013/14,63,478,-10.34779815,20.25736706
Niger,2013/14,217,562,9.38545882,17.41912493
Nigeria,2013/14,"7,921",566,8.08943895,9.59411452
Saint Helena,2013/14,0,654,-9.54779416,-12.40355951
Senegal,2013/14,633,686,-14.4734924,14.36624173
Sierra Leone,2013/14,146,694,-11.79271247,8.56329593
Togo,2013/14,231,768,0.96232845,8.52531356
"West Africa, Unspecified",2013/14,0,,,
ASIA,2013/14,"568,510",,,
"Asia, Unspecified",2013/14,0,,,
East Asia,2013/14,"393,205",,,
China,2013/14,"274,439",156,103.81907349,36.56176546
Hong Kong,2013/14,"8,104",364,54.27407004,32.57503292
Japan,2013/14,"19,334",392,138.03089558,37.59230135
Macau,2013/14,552,,,
Mongolia,2013/14,"1,444",496,103.05299765,46.82681544
North Korea,2013/14,19,408,127.19247973,40.15350311
South Korea,2013/14,"68,047",410,127.83916086,36.38523983
Taiwan,2013/14,"21,266",158,120.95427281,23.7539928
"East Asia, Unspecified",2013/14,0,,,
South and Central Asia,2013/14,"127,301",,,
Afghanistan,2013/14,450,004,66.00473366,33.83523073
Bangladesh,2013/14,"4,802",050,90.23812743,23.86731158
Bhutan,2013/14,127,064,90.40188155,27.41106589
India,2013/14,"102,673",356,79.6119761,22.88578212
Kazakhstan,2013/14,"2,012",398,67.29149357,48.15688067
Kyrgyzstan,2013/14,244,417,74.54165513,41.46221943
Maldives,2013/14,39,462,73.45713004,3.7287092
Nepal,2013/14,"8,155",524,83.9158264,28.24891365
Pakistan,2013/14,"4,935",586,69.33957937,29.9497515
Sri Lanka,2013/14,"2,917",144,80.70108238,7.61266509
Tajikistan,2013/14,270,762,71.01362631,38.5304539
Turkmenistan,2013/14,214,795,59.37100021,39.11554137
Uzbekistan,2013/14,463,860,63.14001528,41.75554225
"South and Central Asia, Unspecified",2013/14,0,,,
Southeast Asia,2013/14,"48,004",,,
Brunei,2013/14,60,,,
Cambodia,2013/14,432,116,104.90694325,12.72004786
Indonesia,2013/14,"7,920",360,117.24011366,-2.21505456
Laos,2013/14,57,,,
Malaysia,2013/14,"6,822",458,109.69762284,3.78986846
Myanmar,2013/14,"1,042",104,96.48843321,21.18566599
Philippines,2013/14,"3,112",608,122.88393253,11.77536778
Singapore,2013/14,"4,592",702,103.81725592,1.35876087
Thailand,2013/14,"7,341",764,101.0028813,15.11815794
Timor-Leste/East Timor,2013/14,47,,,
Vietnam,2013/14,"16,579",704,106.29914698,16.6460167
"Southeast Asia, Unspecified",2013/14,0,,,
EUROPE,2013/14,"86,885",,,
Albania,2013/14,636,008,20.04983396,41.14244989
Andorra,2013/14,9,020,1.56054378,42.54229102
Armenia,2013/14,272,051,44.92993276,40.28952569
Austria,2013/14,"1,062",040,14.1264761,47.58549439
Azerbaijan,2013/14,383,031,47.54599879,40.28827235
Belarus,2013/14,306,112,28.03209307,53.53131377
Belgium,2013/14,948,056,4.64065114,50.63981576
Bosnia and Herzegovina,2013/14,319,070,17.76876733,44.17450125
Bulgaria,2013/14,"1,252",100,25.21552909,42.76890318
Croatia,2013/14,529,191,16.40412899,45.08047631
Cyprus,2013/14,419,196,33.0060022,34.91667211
Czech Republic,2013/14,736,,,
"Czechoslovakia, Former",2013/14,,,,
Denmark,2013/14,"1,470",208,10.02800992,55.98125296
Estonia,2013/14,212,233,25.54248537,58.67192972
Finland,2013/14,656,246,26.2746656,64.49884603
France,2013/14,"8,302",250,-2.76172945,42.17344011
Georgia,2013/14,496,268,43.50780252,42.16855755
Germany,2013/14,"10,160",276,10.38578051,51.10698181
Gibraltar,2013/14,2,292,,
Greece,2013/14,"2,170",300,22.95555794,39.07469623
Hungary,2013/14,667,348,19.39559116,47.16277506
Iceland,2013/14,390,352,-18.57396167,64.99575386
Ireland,2013/14,"1,156",372,-8.13793569,53.1754487
Italy,2013/14,"4,443",380,12.07001339,42.79662641
Kosovo,2013/14,112,,,
Latvia,2013/14,266,428,24.91235983,56.85085163
Liechtenstein,2013/14,8,438,9.53574312,47.13665835
Lithuania,2013/14,287,440,23.88719355,55.32610984
Luxembourg,2013/14,95,442,6.07182201,49.76725361
Macedonia,2013/14,237,,,
Malta,2013/14,52,470,14.40523316,35.92149632
Moldova,2013/14,328,,,
Monaco,2013/14,28,492,7.40627677,43.75274627
Montenegro,2013/14,95,499,19.23883939,42.78890259
Netherlands,2013/14,"2,074",528,5.28144793,52.1007899
Norway,2013/14,"2,304",578,15.34834656,68.75015572
Poland,2013/14,"1,520",616,19.39012835,52.12759564
Portugal,2013/14,877,620,-8.50104361,39.59550671
Romania,2013/14,"1,317",642,24.97293039,45.85243127
Russia,2013/14,"5,138",643,96.68656112,61.98052209
San Marino,2013/14,1,674,12.45922334,43.94186747
Serbia,2013/14,966,688,20.78958334,44.2215032
Serbia & Montenegro,2013/14,,,,
Slovakia,2013/14,356,703,19.47905218,48.70547528
Slovenia,2013/14,188,705,14.80444238,46.11554772
Spain,2013/14,"5,350",724,-3.64755047,40.24448698
Sweden,2013/14,"4,369",752,16.74558049,62.77966519
Switzerland,2013/14,"1,441",756,8.20867471,46.79785878
Turkey,2013/14,"10,821",792,35.16895346,39.0616029
"U.S.S.R., Former",2013/14,,,,
Ukraine,2013/14,"1,464",804,31.38326469,48.99656673
United Kingdom,2013/14,"10,191",826,-2.86563164,54.12387156
Vatican City/Holy See,2013/14,1,,,
"Yugoslavia, Former",2013/14,,,,
"Europe, Unspecified",2013/14,4,,,
LATIN AMERICA & CARIBBEAN,2013/14,"72,318",,,
"Latin America & Caribbean, Unspecified",2013/14,0,,,
Caribbean,2013/14,"10,879",,,
Anguilla,2013/14,21,660,-63.06498927,18.2239595
Antigua and Barbuda,2013/14,215,028,-61.79469343,17.2774996
Aruba,2013/14,74,533,-69.98267711,12.52088038
Bahamas,2013/14,"1,744",044,-76.62843038,24.29036702
Barbados,2013/14,285,052,-59.559797,13.18145428
Bermuda,2013/14,388,060,-64.7545589,32.31367802
British Virgin Islands,2013/14,80,092,-64.47146992,18.52585755
Cayman Islands,2013/14,187,136,-80.91213321,19.42896497
Cuba,2013/14,69,192,-79.01605384,21.62289528
Curacao,2013/14,76,,,
Dominica,2013/14,191,212,-61.357726,15.4394702
Dominican Republic,2013/14,"1,746",214,-70.50568896,18.89433082
Grenada,2013/14,189,308,-61.68220189,12.11725044
Guadeloupe,2013/14,18,312,,
Haiti,2013/14,942,332,-72.68527509,18.93502563
Jamaica,2013/14,"2,502",388,-77.31482593,18.15694878
Martinique,2013/14,7,474,,
Montserrat,2013/14,1,500,-62.18518546,16.73941406
Netherlands Antilles,2013/14,,,,
St. Kitts and Nevis,2013/14,190,,,
St. Lucia,2013/14,322,,,
St. Vincent and the Grenadines,2013/14,105,,,
Sint Maarten,2013/14,46,,,
Trinidad and Tobago,2013/14,"1,440",780,-61.26567923,10.45733408
Turks and Caicos,2013/14,29,,,
"Caribbean, Unspecified",2013/14,12,,,
Mexico and Central America,2013/14,"22,276",,,
Belize,2013/14,324,084,-88.71010486,17.20027509
Costa Rica,2013/14,"1,067",188,-84.19208768,9.97634464
El Salvador,2013/14,"1,233",222,-88.87164469,13.73943744
Guatemala,2013/14,"1,252",320,-90.36482009,15.69403664
Honduras,2013/14,"1,756",340,-86.6151661,14.82688165
Mexico,2013/14,"14,779",484,-102.52345169,23.94753724
Nicaragua,2013/14,437,558,-85.0305297,12.84709429
Panama,2013/14,"1,428",591,-80.11915156,8.51750797
"Mexico and Central America, Unspecified",2013/14,0,,,
South America,2013/14,"39,163",,,
Argentina,2013/14,"1,902",032,-65.17980692,-35.3813488
Bolivia,2013/14,"1,068",068,-64.68538645,-16.70814787
Brazil,2013/14,"13,286",076,-53.09783113,-10.78777702
Chile,2013/14,"2,432",152,-71.38256213,-37.73070989
Colombia,2013/14,"7,083",170,-73.08114582,3.91383431
Ecuador,2013/14,"2,578",218,-78.75201922,-1.42381612
Falkland Islands,2013/14,1,,,
French Guiana,2013/14,2,254,,
Guyana,2013/14,246,328,-58.98202459,4.79378034
Paraguay,2013/14,492,600,-58.40013703,-23.22823913
Peru,2013/14,"2,607",604,-74.38242685,-9.15280381
Suriname,2013/14,91,740,-55.9123457,4.13055413
Uruguay,2013/14,353,858,-56.01807053,-32.79951534
Venezuela,2013/14,"7,022",862,-66.18184123,7.12422421
"South America, Unspecified",2013/14,0,,,
MIDDLE EAST & NORTH AFRICA,2013/14,"92,618",,,
MIDDLE EAST,2013/14,"86,372",,,
Bahrain,2013/14,467,048,50.54196932,26.04205135
Iran,2013/14,"10,194",364,54.27407004,32.57503292
Iraq,2013/14,"1,491",368,43.74353149,33.03970582
Israel,2013/14,"2,457",376,35.00444693,31.46110101
Jordan,2013/14,"2,148",400,36.77136104,31.24579091
Kuwait,2013/14,"7,288",414,47.58700459,29.33431262
Lebanon,2013/14,"1,367",422,35.88016072,33.92306631
Oman,2013/14,"1,504",512,56.09166155,20.60515333
Palestinian Territories,2013/14,429,,,
Qatar,2013/14,"1,191",634,51.18479632,25.30601188
Saudi Arabia,2013/14,"53,919",682,44.53686271,24.12245841
Syria,2013/14,693,,,
United Arab Emirates,2013/14,"2,784",784,54.3001671,23.90528188
Yemen,2013/14,440,887,47.58676189,15.90928005
"Middle East, Unspecified",2013/14,0,,,
North Africa,2013/14,"6,246",,,
Algeria,2013/14,173,012,2.61732301,28.15893849
Egypt,2013/14,"2,832",818,29.86190099,26.49593311
Libya,2013/14,"1,379",434,18.00866169,27.03094495
Morocco,2013/14,"1,324",504,-8.45615795,29.83762955
Tunisia,2013/14,538,788,9.55288359,34.11956246
Western Sahara,2013/14,,732,-12.21982755,24.22956739
"North Africa, Unspecified",2013/14,0,,,
NORTH AMERICA,2013/14,"28,304",,,
Canada,2013/14,"28,304",124,-98.30777028,61.36206324
OCEANIA,2013/14,"6,292",,,
Australia,2013/14,"4,377",036,134.49100008,-25.73288704
Cook Islands,2013/14,5,184,-159.78724218,-21.21927288
Fiji,2013/14,124,242,165.45195432,-17.42858032
French Polynesia,2013/14,28,258,-144.90494387,-14.72227409
Kiribati,2013/14,84,296,-45.61110513,0.86001503
Marshall Islands,2013/14,13,584,170.33976122,7.00376358
Micronesia,2013/14,35,,,
Nauru,2013/14,6,520,166.93256823,-0.51912639
New Caledonia,2013/14,9,540,165.68492374,-21.29991806
New Zealand,2013/14,"1,337",554,171.48492347,-41.81113557
Niue,2013/14,2,570,-169.86994682,-19.04945708
Norfolk Island,2013/14,0,574,167.94921678,-29.0514609
Palau,2013/14,6,585,134.40807966,7.28742784
Papua New Guinea,2013/14,79,598,145.20744752,-6.46416646
Samoa,2013/14,51,882,-172.16485064,-13.75324346
Solomon Islands,2013/14,11,090,159.63287668,-8.92178022
Tonga,2013/14,116,776,-174.80987341,-20.42843174
Tuvalu,2013/14,1,798,,
Vanuatu,2013/14,7,548,167.68644636,-16.22640909
Wallis and Futuna,2013/14,1,,,
"Pacific Islands, Unspecified",2013/14,0,,,
Stateless,2013/14,12,,,
WORLD TOTAL,2013/14,"886,052",,,
"AFRICA, SUB-SAHARAN",2014/15,"33,593",,,
"Africa, Sub-saharan, Unspecified",2014/15,0,,,
East Africa,2014/15,"7,560",,,
Burundi,2014/15,165,108,29.87512156,-3.35939666
Djibouti,2014/15,7,262,42.5606754,11.74871806
Eritrea,2014/15,108,232,38.84617011,15.36186618
Ethiopia,2014/15,"1,472",231,39.60080098,8.62278679
Kenya,2014/15,"3,072",404,37.79593973,0.59988022
Rwanda,2014/15,800,646,29.91988515,-1.99033832
Seychelles,2014/15,14,690,55.47603279,-4.66099094
Somalia,2014/15,32,706,45.70714487,4.75062876
South Sudan,2014/15,28,728,30.24790002,7.30877945
Sudan,2014/15,233,729,29.94046812,15.99035669
Tanzania,2014/15,867,,,
Uganda,2014/15,762,800,32.36907971,1.27469299
"East Africa, Unspecified",2014/15,0,,,
Central Africa,2014/15,"3,032",,,
Cameroon,2014/15,"1,212",120,12.73964156,5.69109849
Central African Republic,2014/15,13,140,20.46826831,6.56823297
Chad,2014/15,61,148,18.64492513,15.33333758
"Congo, Republic of the (Brazzaville)",2014/15,288,,,
"Congo, Dem. Rep. of the (Kinshasa)",2014/15,755,,,
Equatorial Guinea,2014/15,314,226,10.34137924,1.70555135
Gabon,2014/15,388,266,11.7886287,-0.58660025
São Tomé & Príncipe,2014/15,1,,,
"Central Africa, Unspecified",2014/15,0,,,
Southern Africa,2014/15,"6,043",,,
Angola,2014/15,"1,184",024,17.53736768,-12.29336054
Botswana,2014/15,257,072,23.79853368,-22.18403213
Comoros,2014/15,32,174,43.68253968,-11.87783444
Eswatini,2014/15,165,,,
Lesotho,2014/15,56,426,28.22723131,-29.58003188
Madagascar,2014/15,122,450,46.70473674,-19.37189587
Malawi,2014/15,272,454,34.28935599,-13.21808088
Mauritius,2014/15,231,480,57.57120551,-20.27768704
Mozambique,2014/15,108,508,35.53367543,-17.27381643
Namibia,2014/15,67,516,17.20963567,-22.13032568
Reunion,2014/15,1,,,
South Africa,2014/15,"1,838",710,25.08390093,-29.00034095
Zambia,2014/15,465,894,27.77475946,-13.45824152
Zimbabwe,2014/15,"1,245",716,29.8514412,-19.00420419
"Southern Africa, Unspecified",2014/15,0,,,
West Africa,2014/15,"16,958",,,
Benin,2014/15,287,204,2.32785254,9.6417597
Burkina Faso,2014/15,567,854,-1.75456601,12.26953846
Cabo Verde/Cape Verde,2014/15,64,,,
Côte d’Ivoire/Ivory Coast,2014/15,"1,227",384,-5.5692157,7.6284262
Gambia,2014/15,275,270,-15.39601295,13.44965244
Ghana,2014/15,"3,099",288,-1.21676566,7.95345644
Guinea,2014/15,109,324,-10.94066612,10.43621593
Guinea-Bissau,2014/15,9,624,-14.94972445,12.04744948
Liberia,2014/15,168,430,-9.32207573,6.45278492
Mali,2014/15,356,466,-3.54269065,17.34581581
Mauritania,2014/15,81,478,-10.34779815,20.25736706
Niger,2014/15,199,562,9.38545882,17.41912493
Nigeria,2014/15,"9,494",566,8.08943895,9.59411452
Saint Helena,2014/15,0,654,-9.54779416,-12.40355951
Senegal,2014/15,633,686,-14.4734924,14.36624173
Sierra Leone,2014/15,152,694,-11.79271247,8.56329593
Togo,2014/15,238,768,0.96232845,8.52531356
"West Africa, Unspecified",2014/15,0,,,
ASIA,2014/15,"627,306",,,
"Asia, Unspecified",2014/15,0,,,
East Asia,2014/15,"417,881",,,
China,2014/15,"304,040",156,103.81907349,36.56176546
Hong Kong,2014/15,"8,012",364,54.27407004,32.57503292
Japan,2014/15,"19,064",392,138.03089558,37.59230135
Macau,2014/15,573,,,
Mongolia,2014/15,"1,481",496,103.05299765,46.82681544
North Korea,2014/15,8,408,127.19247973,40.15350311
South Korea,2014/15,"63,710",410,127.83916086,36.38523983
Taiwan,2014/15,"20,993",158,120.95427281,23.7539928
"East Asia, Unspecified",2014/15,0,,,
South and Central Asia,2014/15,"158,560",,,
Afghanistan,2014/15,471,004,66.00473366,33.83523073
Bangladesh,2014/15,"5,455",050,90.23812743,23.86731158
Bhutan,2014/15,128,064,90.40188155,27.41106589
India,2014/15,"132,888",356,79.6119761,22.88578212
Kazakhstan,2014/15,"2,017",398,67.29149357,48.15688067
Kyrgyzstan,2014/15,227,417,74.54165513,41.46221943
Maldives,2014/15,34,462,73.45713004,3.7287092
Nepal,2014/15,"8,158",524,83.9158264,28.24891365
Pakistan,2014/15,"5,354",586,69.33957937,29.9497515
Sri Lanka,2014/15,"2,882",144,80.70108238,7.61266509
Tajikistan,2014/15,254,762,71.01362631,38.5304539
Turkmenistan,2014/15,201,795,59.37100021,39.11554137
Uzbekistan,2014/15,491,860,63.14001528,41.75554225
"South and Central Asia, Unspecified",2014/15,0,,,
Southeast Asia,2014/15,"50,865",,,
Brunei,2014/15,73,,,
Cambodia,2014/15,492,116,104.90694325,12.72004786
Indonesia,2014/15,"8,188",360,117.24011366,-2.21505456
Laos,2014/15,63,,,
Malaysia,2014/15,"7,231",458,109.69762284,3.78986846
Myanmar,2014/15,"1,067",104,96.48843321,21.18566599
Philippines,2014/15,"3,026",608,122.88393253,11.77536778
Singapore,2014/15,"4,727",702,103.81725592,1.35876087
Thailand,2014/15,"7,217",764,101.0028813,15.11815794
Timor-Leste/East Timor,2014/15,59,,,
Vietnam,2014/15,"18,722",704,106.29914698,16.6460167
"Southeast Asia, Unspecified",2014/15,0,,,
EUROPE,2014/15,"90,625",,,
Albania,2014/15,670,008,20.04983396,41.14244989
Andorra,2014/15,9,020,1.56054378,42.54229102
Armenia,2014/15,304,051,44.92993276,40.28952569
Austria,2014/15,"1,114",040,14.1264761,47.58549439
Azerbaijan,2014/15,408,031,47.54599879,40.28827235
Belarus,2014/15,330,112,28.03209307,53.53131377
Belgium,2014/15,"1,001",056,4.64065114,50.63981576
Bosnia and Herzegovina,2014/15,296,070,17.76876733,44.17450125
Bulgaria,2014/15,"1,171",100,25.21552909,42.76890318
Croatia,2014/15,523,191,16.40412899,45.08047631
Cyprus,2014/15,417,196,33.0060022,34.91667211
Czech Republic,2014/15,796,,,
"Czechoslovakia, Former",2014/15,,,,
Denmark,2014/15,"1,602",208,10.02800992,55.98125296
Estonia,2014/15,288,233,25.54248537,58.67192972
Finland,2014/15,669,246,26.2746656,64.49884603
France,2014/15,"8,743",250,-2.76172945,42.17344011
Georgia,2014/15,541,268,43.50780252,42.16855755
Germany,2014/15,"10,193",276,10.38578051,51.10698181
Gibraltar,2014/15,6,292,,
Greece,2014/15,"2,147",300,22.95555794,39.07469623
Hungary,2014/15,720,348,19.39559116,47.16277506
Iceland,2014/15,396,352,-18.57396167,64.99575386
Ireland,2014/15,"1,192",372,-8.13793569,53.1754487
Italy,2014/15,"4,863",380,12.07001339,42.79662641
Kosovo,2014/15,170,,,
Latvia,2014/15,276,428,24.91235983,56.85085163
Liechtenstein,2014/15,8,438,9.53574312,47.13665835
Lithuania,2014/15,293,440,23.88719355,55.32610984
Luxembourg,2014/15,97,442,6.07182201,49.76725361
Macedonia,2014/15,237,,,
Malta,2014/15,29,470,14.40523316,35.92149632
Moldova,2014/15,322,,,
Monaco,2014/15,18,492,7.40627677,43.75274627
Montenegro,2014/15,121,499,19.23883939,42.78890259
Netherlands,2014/15,"2,257",528,5.28144793,52.1007899
Norway,2014/15,"2,498",578,15.34834656,68.75015572
Poland,2014/15,"1,493",616,19.39012835,52.12759564
Portugal,2014/15,915,620,-8.50104361,39.59550671
Romania,2014/15,"1,220",642,24.97293039,45.85243127
Russia,2014/15,"5,562",643,96.68656112,61.98052209
San Marino,2014/15,1,674,12.45922334,43.94186747
Serbia,2014/15,970,688,20.78958334,44.2215032
Serbia & Montenegro,2014/15,,,,
Slovakia,2014/15,359,703,19.47905218,48.70547528
Slovenia,2014/15,245,705,14.80444238,46.11554772
Spain,2014/15,"6,143",724,-3.64755047,40.24448698
Sweden,2014/15,"4,507",752,16.74558049,62.77966519
Switzerland,2014/15,"1,461",756,8.20867471,46.79785878
Turkey,2014/15,"10,724",792,35.16895346,39.0616029
"U.S.S.R., Former",2014/15,,,,
Ukraine,2014/15,"1,551",804,31.38326469,48.99656673
United Kingdom,2014/15,"10,743",826,-2.86563164,54.12387156
Vatican City/Holy See,2014/15,2,,,
"Yugoslavia, Former",2014/15,,,,
"Europe, Unspecified",2014/15,4,,,
LATIN AMERICA & CARIBBEAN,2014/15,"86,378",,,
"Latin America & Caribbean, Unspecified",2014/15,0,,,
Caribbean,2014/15,"10,478",,,
Anguilla,2014/15,15,660,-63.06498927,18.2239595
Antigua and Barbuda,2014/15,120,028,-61.79469343,17.2774996
Aruba,2014/15,68,533,-69.98267711,12.52088038
Bahamas,2014/15,"1,835",044,-76.62843038,24.29036702
Barbados,2014/15,278,052,-59.559797,13.18145428
Bermuda,2014/15,387,060,-64.7545589,32.31367802
British Virgin Islands,2014/15,99,092,-64.47146992,18.52585755
Cayman Islands,2014/15,174,136,-80.91213321,19.42896497
Cuba,2014/15,94,192,-79.01605384,21.62289528
Curacao,2014/15,75,,,
Dominica,2014/15,166,212,-61.357726,15.4394702
Dominican Republic,2014/15,"1,535",214,-70.50568896,18.89433082
Grenada,2014/15,145,308,-61.68220189,12.11725044
Guadeloupe,2014/15,11,312,,
Haiti,2014/15,934,332,-72.68527509,18.93502563
Jamaica,2014/15,"2,440",388,-77.31482593,18.15694878
Martinique,2014/15,3,474,,
Montserrat,2014/15,1,500,-62.18518546,16.73941406
Netherlands Antilles,2014/15,,,,
St. Kitts and Nevis,2014/15,182,,,
St. Lucia,2014/15,275,,,
St. Vincent and the Grenadines,2014/15,75,,,
Sint Maarten,2014/15,52,,,
Trinidad and Tobago,2014/15,"1,464",780,-61.26567923,10.45733408
Turks and Caicos,2014/15,36,,,
"Caribbean, Unspecified",2014/15,14,,,
Mexico and Central America,2014/15,"24,709",,,
Belize,2014/15,312,084,-88.71010486,17.20027509
Costa Rica,2014/15,"1,118",188,-84.19208768,9.97634464
El Salvador,2014/15,"1,460",222,-88.87164469,13.73943744
Guatemala,2014/15,"1,205",320,-90.36482009,15.69403664
Honduras,2014/15,"1,760",340,-86.6151661,14.82688165
Mexico,2014/15,"17,052",484,-102.52345169,23.94753724
Nicaragua,2014/15,418,558,-85.0305297,12.84709429
Panama,2014/15,"1,384",591,-80.11915156,8.51750797
"Mexico and Central America, Unspecified",2014/15,0,,,
South America,2014/15,"51,191",,,
Argentina,2014/15,"2,053",032,-65.17980692,-35.3813488
Bolivia,2014/15,"1,116",068,-64.68538645,-16.70814787
Brazil,2014/15,"23,675",076,-53.09783113,-10.78777702
Chile,2014/15,"2,513",152,-71.38256213,-37.73070989
Colombia,2014/15,"7,169",170,-73.08114582,3.91383431
Ecuador,2014/15,"2,797",218,-78.75201922,-1.42381612
Falkland Islands,2014/15,3,,,
French Guiana,2014/15,11,254,,
Guyana,2014/15,230,328,-58.98202459,4.79378034
Paraguay,2014/15,505,600,-58.40013703,-23.22823913
Peru,2014/15,"2,763",604,-74.38242685,-9.15280381
Suriname,2014/15,82,740,-55.9123457,4.13055413
Uruguay,2014/15,384,858,-56.01807053,-32.79951534
Venezuela,2014/15,"7,890",862,-66.18184123,7.12422421
"South America, Unspecified",2014/15,0,,,
MIDDLE EAST & NORTH AFRICA,2014/15,"103,307",,,
MIDDLE EAST,2014/15,"96,615",,,
Bahrain,2014/15,474,048,50.54196932,26.04205135
Iran,2014/15,"11,338",364,54.27407004,32.57503292
Iraq,2014/15,"1,727",368,43.74353149,33.03970582
Israel,2014/15,"2,370",376,35.00444693,31.46110101
Jordan,2014/15,"2,215",400,36.77136104,31.24579091
Kuwait,2014/15,"9,034",414,47.58700459,29.33431262
Lebanon,2014/15,"1,416",422,35.88016072,33.92306631
Oman,2014/15,"2,200",512,56.09166155,20.60515333
Palestinian Territories,2014/15,458,,,
Qatar,2014/15,"1,252",634,51.18479632,25.30601188
Saudi Arabia,2014/15,"59,945",682,44.53686271,24.12245841
Syria,2014/15,792,,,
United Arab Emirates,2014/15,"2,878",784,54.3001671,23.90528188
Yemen,2014/15,516,887,47.58676189,15.90928005
"Middle East, Unspecified",2014/15,0,,,
North Africa,2014/15,"6,692",,,
Algeria,2014/15,175,012,2.61732301,28.15893849
Egypt,2014/15,"2,974",818,29.86190099,26.49593311
Libya,2014/15,"1,578",434,18.00866169,27.03094495
Morocco,2014/15,"1,373",504,-8.45615795,29.83762955
Tunisia,2014/15,592,788,9.55288359,34.11956246
Western Sahara,2014/15,,732,-12.21982755,24.22956739
"North Africa, Unspecified",2014/15,0,,,
NORTH AMERICA,2014/15,"27,240",,,
Canada,2014/15,"27,240",124,-98.30777028,61.36206324
OCEANIA,2014/15,"6,471",,,
Australia,2014/15,"4,511",036,134.49100008,-25.73288704
Cook Islands,2014/15,2,184,-159.78724218,-21.21927288
Fiji,2014/15,89,242,165.45195432,-17.42858032
French Polynesia,2014/15,23,258,-144.90494387,-14.72227409
Kiribati,2014/15,41,296,-45.61110513,0.86001503
Marshall Islands,2014/15,17,584,170.33976122,7.00376358
Micronesia,2014/15,39,,,
Nauru,2014/15,9,520,166.93256823,-0.51912639
New Caledonia,2014/15,7,540,165.68492374,-21.29991806
New Zealand,2014/15,"1,472",554,171.48492347,-41.81113557
Niue,2014/15,8,570,-169.86994682,-19.04945708
Norfolk Island,2014/15,0,574,167.94921678,-29.0514609
Palau,2014/15,10,585,134.40807966,7.28742784
Papua New Guinea,2014/15,87,598,145.20744752,-6.46416646
Samoa,2014/15,21,882,-172.16485064,-13.75324346
Solomon Islands,2014/15,7,090,159.63287668,-8.92178022
Tonga,2014/15,95,776,-174.80987341,-20.42843174
Tuvalu,2014/15,7,798,,
Vanuatu,2014/15,8,548,167.68644636,-16.22640909
Wallis and Futuna,2014/15,18,,,
"Pacific Islands, Unspecified",2014/15,0,,,
Stateless,2014/15,6,,,
WORLD TOTAL,2014/15,"974,926",,,
"AFRICA, SUB-SAHARAN",2015/16,"35,364",,,
"Africa, Sub-saharan, Unspecified",2015/16,0,,,
East Africa,2015/16,"7,690",,,
Burundi,2015/16,148,108,29.87512156,-3.35939666
Djibouti,2015/16,9,262,42.5606754,11.74871806
Eritrea,2015/16,109,232,38.84617011,15.36186618
Ethiopia,2015/16,"1,517",231,39.60080098,8.62278679
Kenya,2015/16,"3,019",404,37.79593973,0.59988022
Rwanda,2015/16,928,646,29.91988515,-1.99033832
Seychelles,2015/16,20,690,55.47603279,-4.66099094
Somalia,2015/16,35,706,45.70714487,4.75062876
South Sudan,2015/16,36,728,30.24790002,7.30877945
Sudan,2015/16,253,729,29.94046812,15.99035669
Tanzania,2015/16,840,,,
Uganda,2015/16,776,800,32.36907971,1.27469299
"East Africa, Unspecified",2015/16,0,,,
Central Africa,2015/16,"3,311",,,
Cameroon,2015/16,"1,210",120,12.73964156,5.69109849
Central African Republic,2015/16,13,140,20.46826831,6.56823297
Chad,2015/16,52,148,18.64492513,15.33333758
"Congo, Republic of the (Brazzaville)",2015/16,337,,,
"Congo, Dem. Rep. of the (Kinshasa)",2015/16,949,,,
Equatorial Guinea,2015/16,339,226,10.34137924,1.70555135
Gabon,2015/16,410,266,11.7886287,-0.58660025
São Tomé & Príncipe,2015/16,1,,,
"Central Africa, Unspecified",2015/16,0,,,
Southern Africa,2015/16,"6,263",,,
Angola,2015/16,"1,296",024,17.53736768,-12.29336054
Botswana,2015/16,246,072,23.79853368,-22.18403213
Comoros,2015/16,32,174,43.68253968,-11.87783444
Eswatini,2015/16,192,,,
Lesotho,2015/16,61,426,28.22723131,-29.58003188
Madagascar,2015/16,126,450,46.70473674,-19.37189587
Malawi,2015/16,289,454,34.28935599,-13.21808088
Mauritius,2015/16,250,480,57.57120551,-20.27768704
Mozambique,2015/16,109,508,35.53367543,-17.27381643
Namibia,2015/16,76,516,17.20963567,-22.13032568
Reunion,2015/16,5,,,
South Africa,2015/16,"1,813",710,25.08390093,-29.00034095
Zambia,2015/16,473,894,27.77475946,-13.45824152
Zimbabwe,2015/16,"1,295",716,29.8514412,-19.00420419
"Southern Africa, Unspecified",2015/16,0,,,
West Africa,2015/16,"18,100",,,
Benin,2015/16,259,204,2.32785254,9.6417597
Burkina Faso,2015/16,540,854,-1.75456601,12.26953846
Cabo Verde/Cape Verde,2015/16,102,,,
Côte d’Ivoire/Ivory Coast,2015/16,"1,229",384,-5.5692157,7.6284262
Gambia,2015/16,274,270,-15.39601295,13.44965244
Ghana,2015/16,"3,049",288,-1.21676566,7.95345644
Guinea,2015/16,94,324,-10.94066612,10.43621593
Guinea-Bissau,2015/16,18,624,-14.94972445,12.04744948
Liberia,2015/16,205,430,-9.32207573,6.45278492
Mali,2015/16,331,466,-3.54269065,17.34581581
Mauritania,2015/16,97,478,-10.34779815,20.25736706
Niger,2015/16,246,562,9.38545882,17.41912493
Nigeria,2015/16,"10,674",566,8.08943895,9.59411452
Saint Helena,2015/16,3,654,-9.54779416,-12.40355951
Senegal,2015/16,603,686,-14.4734924,14.36624173
Sierra Leone,2015/16,167,694,-11.79271247,8.56329593
Togo,2015/16,209,768,0.96232845,8.52531356
"West Africa, Unspecified",2015/16,0,,,
ASIA,2015/16,"689,525",,,
"Asia, Unspecified",2015/16,0,,,
East Asia,2015/16,"439,702",,,
China,2015/16,"328,547",156,103.81907349,36.56176546
Hong Kong,2015/16,"7,923",364,54.27407004,32.57503292
Japan,2015/16,"19,060",392,138.03089558,37.59230135
Macau,2015/16,586,,,
Mongolia,2015/16,"1,434",496,103.05299765,46.82681544
North Korea,2015/16,18,408,127.19247973,40.15350311
South Korea,2015/16,"61,007",410,127.83916086,36.38523983
Taiwan,2015/16,"21,127",158,120.95427281,23.7539928
"East Asia, Unspecified",2015/16,0,,,
South and Central Asia,2015/16,"195,135",,,
Afghanistan,2015/16,498,004,66.00473366,33.83523073
Bangladesh,2015/16,"6,513",050,90.23812743,23.86731158
Bhutan,2015/16,143,064,90.40188155,27.41106589
India,2015/16,"165,918",356,79.6119761,22.88578212
Kazakhstan,2015/16,"1,935",398,67.29149357,48.15688067
Kyrgyzstan,2015/16,227,417,74.54165513,41.46221943
Maldives,2015/16,37,462,73.45713004,3.7287092
Nepal,2015/16,"9,662",524,83.9158264,28.24891365
Pakistan,2015/16,"6,141",586,69.33957937,29.9497515
Sri Lanka,2015/16,"3,080",144,80.70108238,7.61266509
Tajikistan,2015/16,235,762,71.01362631,38.5304539
Turkmenistan,2015/16,216,795,59.37100021,39.11554137
Uzbekistan,2015/16,530,860,63.14001528,41.75554225
"South and Central Asia, Unspecified",2015/16,0,,,
Southeast Asia,2015/16,"54,688",,,
Brunei,2015/16,59,,,
Cambodia,2015/16,499,116,104.90694325,12.72004786
Indonesia,2015/16,"8,727",360,117.24011366,-2.21505456
Laos,2015/16,63,,,
Malaysia,2015/16,"7,834",458,109.69762284,3.78986846
Myanmar,2015/16,"1,194",104,96.48843321,21.18566599
Philippines,2015/16,"2,886",608,122.88393253,11.77536778
Singapore,2015/16,"4,865",702,103.81725592,1.35876087
Thailand,2015/16,"7,113",764,101.0028813,15.11815794
Timor-Leste/East Timor,2015/16,45,,,
Vietnam,2015/16,"21,403",704,106.29914698,16.6460167
"Southeast Asia, Unspecified",2015/16,0,,,
EUROPE,2015/16,"91,915",,,
Albania,2015/16,705,008,20.04983396,41.14244989
Andorra,2015/16,11,020,1.56054378,42.54229102
Armenia,2015/16,270,051,44.92993276,40.28952569
Austria,2015/16,"1,141",040,14.1264761,47.58549439
Azerbaijan,2015/16,391,031,47.54599879,40.28827235
Belarus,2015/16,323,112,28.03209307,53.53131377
Belgium,2015/16,"1,094",056,4.64065114,50.63981576
Bosnia and Herzegovina,2015/16,309,070,17.76876733,44.17450125
Bulgaria,2015/16,"1,016",100,25.21552909,42.76890318
Croatia,2015/16,527,191,16.40412899,45.08047631
Cyprus,2015/16,401,196,33.0060022,34.91667211
Czech Republic,2015/16,749,,,
"Czechoslovakia, Former",2015/16,,,,
Denmark,2015/16,"1,486",208,10.02800992,55.98125296
Estonia,2015/16,191,233,25.54248537,58.67192972
Finland,2015/16,714,246,26.2746656,64.49884603
France,2015/16,"8,764",250,-2.76172945,42.17344011
Georgia,2015/16,543,268,43.50780252,42.16855755
Germany,2015/16,"10,145",276,10.38578051,51.10698181
Gibraltar,2015/16,4,292,,
Greece,2015/16,"2,199",300,22.95555794,39.07469623
Hungary,2015/16,773,348,19.39559116,47.16277506
Iceland,2015/16,382,352,-18.57396167,64.99575386
Ireland,2015/16,"1,183",372,-8.13793569,53.1754487
Italy,2015/16,"5,155",380,12.07001339,42.79662641
Kosovo,2015/16,268,,,
Latvia,2015/16,281,428,24.91235983,56.85085163
Liechtenstein,2015/16,8,438,9.53574312,47.13665835
Lithuania,2015/16,315,440,23.88719355,55.32610984
Luxembourg,2015/16,86,442,6.07182201,49.76725361
Macedonia,2015/16,236,,,
Malta,2015/16,23,470,14.40523316,35.92149632
Moldova,2015/16,281,,,
Monaco,2015/16,23,492,7.40627677,43.75274627
Montenegro,2015/16,126,499,19.23883939,42.78890259
Netherlands,2015/16,"2,445",528,5.28144793,52.1007899
Norway,2015/16,"2,391",578,15.34834656,68.75015572
Poland,2015/16,"1,460",616,19.39012835,52.12759564
Portugal,2015/16,919,620,-8.50104361,39.59550671
Romania,2015/16,"1,105",642,24.97293039,45.85243127
Russia,2015/16,"5,444",643,96.68656112,61.98052209
San Marino,2015/16,3,674,12.45922334,43.94186747
Serbia,2015/16,"1,023",688,20.78958334,44.2215032
Serbia & Montenegro,2015/16,,,,
Slovakia,2015/16,343,703,19.47905218,48.70547528
Slovenia,2015/16,256,705,14.80444238,46.11554772
Spain,2015/16,"6,640",724,-3.64755047,40.24448698
Sweden,2015/16,"4,297",752,16.74558049,62.77966519
Switzerland,2015/16,"1,480",756,8.20867471,46.79785878
Turkey,2015/16,"10,691",792,35.16895346,39.0616029
"U.S.S.R., Former",2015/16,,,,
Ukraine,2015/16,"1,680",804,31.38326469,48.99656673
United Kingdom,2015/16,"11,599",826,-2.86563164,54.12387156
Vatican City/Holy See,2015/16,6,,,
"Yugoslavia, Former",2015/16,,,,
"Europe, Unspecified",2015/16,10,,,
LATIN AMERICA & CARIBBEAN,2015/16,"84,908",,,
"Latin America & Caribbean, Unspecified",2015/16,0,,,
Caribbean,2015/16,"11,042",,,
Anguilla,2015/16,18,660,-63.06498927,18.2239595
Antigua and Barbuda,2015/16,228,028,-61.79469343,17.2774996
Aruba,2015/16,89,533,-69.98267711,12.52088038
Bahamas,2015/16,"2,027",044,-76.62843038,24.29036702
Barbados,2015/16,319,052,-59.559797,13.18145428
Bermuda,2015/16,319,060,-64.7545589,32.31367802
British Virgin Islands,2015/16,95,092,-64.47146992,18.52585755
Cayman Islands,2015/16,165,136,-80.91213321,19.42896497
Cuba,2015/16,153,192,-79.01605384,21.62289528
Curacao,2015/16,117,,,
Dominica,2015/16,238,212,-61.357726,15.4394702
Dominican Republic,2015/16,"1,513",214,-70.50568896,18.89433082
Grenada,2015/16,186,308,-61.68220189,12.11725044
Guadeloupe,2015/16,11,312,,
Haiti,2015/16,946,332,-72.68527509,18.93502563
Jamaica,2015/16,"2,510",388,-77.31482593,18.15694878
Martinique,2015/16,9,474,,
Montserrat,2015/16,4,500,-62.18518546,16.73941406
Netherlands Antilles,2015/16,,,,
St. Kitts and Nevis,2015/16,222,,,
St. Lucia,2015/16,265,,,
St. Vincent and the Grenadines,2015/16,89,,,
Sint Maarten,2015/16,92,,,
Trinidad and Tobago,2015/16,"1,381",780,-61.26567923,10.45733408
Turks and Caicos,2015/16,44,,,
"Caribbean, Unspecified",2015/16,2,,,
Mexico and Central America,2015/16,"24,983",,,
Belize,2015/16,308,084,-88.71010486,17.20027509
Costa Rica,2015/16,"1,148",188,-84.19208768,9.97634464
El Salvador,2015/16,"1,632",222,-88.87164469,13.73943744
Guatemala,2015/16,"1,245",320,-90.36482009,15.69403664
Honduras,2015/16,"1,985",340,-86.6151661,14.82688165
Mexico,2015/16,"16,733",484,-102.52345169,23.94753724
Nicaragua,2015/16,395,558,-85.0305297,12.84709429
Panama,2015/16,"1,537",591,-80.11915156,8.51750797
"Mexico and Central America, Unspecified",2015/16,0,,,
South America,2015/16,"48,883",,,
Argentina,2015/16,"2,201",032,-65.17980692,-35.3813488
Bolivia,2015/16,"1,142",068,-64.68538645,-16.70814787
Brazil,2015/16,"19,370",076,-53.09783113,-10.78777702
Chile,2015/16,"2,630",152,-71.38256213,-37.73070989
Colombia,2015/16,"7,815",170,-73.08114582,3.91383431
Ecuador,2015/16,"2,889",218,-78.75201922,-1.42381612
Falkland Islands,2015/16,2,,,
French Guiana,2015/16,7,254,,
Guyana,2015/16,246,328,-58.98202459,4.79378034
Paraguay,2015/16,564,600,-58.40013703,-23.22823913
Peru,2015/16,"3,256",604,-74.38242685,-9.15280381
Suriname,2015/16,84,740,-55.9123457,4.13055413
Uruguay,2015/16,410,858,-56.01807053,-32.79951534
Venezuela,2015/16,"8,267",862,-66.18184123,7.12422421
"South America, Unspecified",2015/16,0,,,
MIDDLE EAST & NORTH AFRICA,2015/16,"108,227",,,
MIDDLE EAST,2015/16,"100,926",,,
Bahrain,2015/16,469,048,50.54196932,26.04205135
Iran,2015/16,"12,269",364,54.27407004,32.57503292
Iraq,2015/16,"1,901",368,43.74353149,33.03970582
Israel,2015/16,"2,343",376,35.00444693,31.46110101
Jordan,2015/16,"2,330",400,36.77136104,31.24579091
Kuwait,2015/16,"9,772",414,47.58700459,29.33431262
Lebanon,2015/16,"1,486",422,35.88016072,33.92306631
Oman,2015/16,"2,856",512,56.09166155,20.60515333
Palestinian Territories,2015/16,468,,,
Qatar,2015/16,"1,443",634,51.18479632,25.30601188
Saudi Arabia,2015/16,"61,287",682,44.53686271,24.12245841
Syria,2015/16,783,,,
United Arab Emirates,2015/16,"2,920",784,54.3001671,23.90528188
Yemen,2015/16,599,887,47.58676189,15.90928005
"Middle East, Unspecified",2015/16,0,,,
North Africa,2015/16,"7,301",,,
Algeria,2015/16,158,012,2.61732301,28.15893849
Egypt,2015/16,"3,442",818,29.86190099,26.49593311
Libya,2015/16,"1,514",434,18.00866169,27.03094495
Morocco,2015/16,"1,495",504,-8.45615795,29.83762955
Tunisia,2015/16,692,788,9.55288359,34.11956246
Western Sahara,2015/16,,732,-12.21982755,24.22956739
"North Africa, Unspecified",2015/16,0,,,
NORTH AMERICA,2015/16,"26,973",,,
Canada,2015/16,"26,973",124,-98.30777028,61.36206324
OCEANIA,2015/16,"6,917",,,
Australia,2015/16,"4,752",036,134.49100008,-25.73288704
Cook Islands,2015/16,5,184,-159.78724218,-21.21927288
Fiji,2015/16,111,242,165.45195432,-17.42858032
French Polynesia,2015/16,31,258,-144.90494387,-14.72227409
Kiribati,2015/16,53,296,-45.61110513,0.86001503
Marshall Islands,2015/16,18,584,170.33976122,7.00376358
Micronesia,2015/16,22,,,
Nauru,2015/16,0,520,166.93256823,-0.51912639
New Caledonia,2015/16,2,540,165.68492374,-21.29991806
New Zealand,2015/16,"1,608",554,171.48492347,-41.81113557
Niue,2015/16,2,570,-169.86994682,-19.04945708
Norfolk Island,2015/16,2,574,167.94921678,-29.0514609
Palau,2015/16,12,585,134.40807966,7.28742784
Papua New Guinea,2015/16,87,598,145.20744752,-6.46416646
Samoa,2015/16,60,882,-172.16485064,-13.75324346
Solomon Islands,2015/16,5,090,159.63287668,-8.92178022
Tonga,2015/16,130,776,-174.80987341,-20.42843174
Tuvalu,2015/16,4,798,,
Vanuatu,2015/16,9,548,167.68644636,-16.22640909
Wallis and Futuna,2015/16,4,,,
"Pacific Islands, Unspecified",2015/16,0,,,
Stateless,2015/16,10,,,
WORLD TOTAL,2015/16,"1,043,839",,,
"AFRICA, SUB-SAHARAN",2016/17,"37,735",,,
"Africa, Sub-saharan, Unspecified",2016/17,0,,,
East Africa,2016/17,"8,480",,,
Burundi,2016/17,180,108,29.87512156,-3.35939666
Djibouti,2016/17,10,262,42.5606754,11.74871806
Eritrea,2016/17,138,232,38.84617011,15.36186618
Ethiopia,2016/17,"1,847",231,39.60080098,8.62278679
Kenya,2016/17,"3,189",404,37.79593973,0.59988022
Rwanda,2016/17,"1,088",646,29.91988515,-1.99033832
Seychelles,2016/17,16,690,55.47603279,-4.66099094
Somalia,2016/17,50,706,45.70714487,4.75062876
South Sudan,2016/17,48,728,30.24790002,7.30877945
Sudan,2016/17,324,729,29.94046812,15.99035669
Tanzania,2016/17,811,,,
Uganda,2016/17,779,800,32.36907971,1.27469299
"East Africa, Unspecified",2016/17,0,,,
Central Africa,2016/17,"3,545",,,
Cameroon,2016/17,"1,334",120,12.73964156,5.69109849
Central African Republic,2016/17,15,140,20.46826831,6.56823297
Chad,2016/17,66,148,18.64492513,15.33333758
"Congo, Republic of the (Brazzaville)",2016/17,268,,,
"Congo, Dem. Rep. of the (Kinshasa)",2016/17,"1,137",,,
Equatorial Guinea,2016/17,360,226,10.34137924,1.70555135
Gabon,2016/17,363,266,11.7886287,-0.58660025
São Tomé & Príncipe,2016/17,2,,,
"Central Africa, Unspecified",2016/17,0,,,
Southern Africa,2016/17,"6,473",,,
Angola,2016/17,"1,257",024,17.53736768,-12.29336054
Botswana,2016/17,296,072,23.79853368,-22.18403213
Comoros,2016/17,10,174,43.68253968,-11.87783444
Eswatini,2016/17,183,,,
Lesotho,2016/17,59,426,28.22723131,-29.58003188
Madagascar,2016/17,143,450,46.70473674,-19.37189587
Malawi,2016/17,317,454,34.28935599,-13.21808088
Mauritius,2016/17,283,480,57.57120551,-20.27768704
Mozambique,2016/17,120,508,35.53367543,-17.27381643
Namibia,2016/17,93,516,17.20963567,-22.13032568
Reunion,2016/17,2,,,
South Africa,2016/17,"1,911",710,25.08390093,-29.00034095
Zambia,2016/17,469,894,27.77475946,-13.45824152
Zimbabwe,2016/17,"1,330",716,29.8514412,-19.00420419
"Southern Africa, Unspecified",2016/17,0,,,
West Africa,2016/17,"19,237",,,
Benin,2016/17,248,204,2.32785254,9.6417597
Burkina Faso,2016/17,533,854,-1.75456601,12.26953846
Cabo Verde/Cape Verde,2016/17,80,,,
Côte d’Ivoire/Ivory Coast,2016/17,"1,353",384,-5.5692157,7.6284262
Gambia,2016/17,299,270,-15.39601295,13.44965244
Ghana,2016/17,"3,111",288,-1.21676566,7.95345644
Guinea,2016/17,94,324,-10.94066612,10.43621593
Guinea-Bissau,2016/17,9,624,-14.94972445,12.04744948
Liberia,2016/17,221,430,-9.32207573,6.45278492
Mali,2016/17,310,466,-3.54269065,17.34581581
Mauritania,2016/17,103,478,-10.34779815,20.25736706
Niger,2016/17,177,562,9.38545882,17.41912493
Nigeria,2016/17,"11,710",566,8.08943895,9.59411452
Saint Helena,2016/17,1,654,-9.54779416,-12.40355951
Senegal,2016/17,569,686,-14.4734924,14.36624173
Sierra Leone,2016/17,209,694,-11.79271247,8.56329593
Togo,2016/17,210,768,0.96232845,8.52531356
"West Africa, Unspecified",2016/17,0,,,
ASIA,2016/17,"734,309",,,
"Asia, Unspecified",2016/17,0,,,
East Asia,2016/17,"459,284",,,
China,2016/17,"350,755",156,103.81907349,36.56176546
Hong Kong,2016/17,"7,547",364,54.27407004,32.57503292
Japan,2016/17,"18,780",392,138.03089558,37.59230135
Macau,2016/17,605,,,
Mongolia,2016/17,"1,410",496,103.05299765,46.82681544
North Korea,2016/17,8,408,127.19247973,40.15350311
South Korea,2016/17,"58,663",410,127.83916086,36.38523983
Taiwan,2016/17,"21,516",158,120.95427281,23.7539928
"East Asia, Unspecified",2016/17,0,,,
South and Central Asia,2016/17,"218,937",,,
Afghanistan,2016/17,506,004,66.00473366,33.83523073
Bangladesh,2016/17,"7,143",050,90.23812743,23.86731158
Bhutan,2016/17,148,064,90.40188155,27.41106589
India,2016/17,"186,267",356,79.6119761,22.88578212
Kazakhstan,2016/17,"1,792",398,67.29149357,48.15688067
Kyrgyzstan,2016/17,216,417,74.54165513,41.46221943
Maldives,2016/17,40,462,73.45713004,3.7287092
Nepal,2016/17,"11,607",524,83.9158264,28.24891365
Pakistan,2016/17,"7,015",586,69.33957937,29.9497515
Sri Lanka,2016/17,"3,263",144,80.70108238,7.61266509
Tajikistan,2016/17,204,762,71.01362631,38.5304539
Turkmenistan,2016/17,231,795,59.37100021,39.11554137
Uzbekistan,2016/17,505,860,63.14001528,41.75554225
"South and Central Asia, Unspecified",2016/17,0,,,
Southeast Asia,2016/17,"56,088",,,
Brunei,2016/17,53,,,
Cambodia,2016/17,512,116,104.90694325,12.72004786
Indonesia,2016/17,"8,776",360,117.24011366,-2.21505456
Laos,2016/17,91,,,
Malaysia,2016/17,"8,247",458,109.69762284,3.78986846
Myanmar,2016/17,"1,351",104,96.48843321,21.18566599
Philippines,2016/17,"3,006",608,122.88393253,11.77536778
Singapore,2016/17,"4,677",702,103.81725592,1.35876087
Thailand,2016/17,"6,893",764,101.0028813,15.11815794
Timor-Leste/East Timor,2016/17,44,,,
Vietnam,2016/17,"22,438",704,106.29914698,16.6460167
"Southeast Asia, Unspecified",2016/17,0,,,
EUROPE,2016/17,"92,820",,,
Albania,2016/17,781,008,20.04983396,41.14244989
Andorra,2016/17,16,020,1.56054378,42.54229102
Armenia,2016/17,280,051,44.92993276,40.28952569
Austria,2016/17,"1,111",040,14.1264761,47.58549439
Azerbaijan,2016/17,386,031,47.54599879,40.28827235
Belarus,2016/17,319,112,28.03209307,53.53131377
Belgium,2016/17,"1,087",056,4.64065114,50.63981576
Bosnia and Herzegovina,2016/17,303,070,17.76876733,44.17450125
Bulgaria,2016/17,929,100,25.21552909,42.76890318
Croatia,2016/17,537,191,16.40412899,45.08047631
Cyprus,2016/17,388,196,33.0060022,34.91667211
Czech Republic,2016/17,772,,,
"Czechoslovakia, Former",2016/17,,,,
Denmark,2016/17,"1,490",208,10.02800992,55.98125296
Estonia,2016/17,179,233,25.54248537,58.67192972
Finland,2016/17,737,246,26.2746656,64.49884603
France,2016/17,"8,814",250,-2.76172945,42.17344011
Georgia,2016/17,558,268,43.50780252,42.16855755
Germany,2016/17,"10,169",276,10.38578051,51.10698181
Gibraltar,2016/17,15,292,,
Greece,2016/17,"2,318",300,22.95555794,39.07469623
Hungary,2016/17,730,348,19.39559116,47.16277506
Iceland,2016/17,402,352,-18.57396167,64.99575386
Ireland,2016/17,"1,217",372,-8.13793569,53.1754487
Italy,2016/17,"5,593",380,12.07001339,42.79662641
Kosovo,2016/17,244,,,
Latvia,2016/17,244,428,24.91235983,56.85085163
Liechtenstein,2016/17,8,438,9.53574312,47.13665835
Lithuania,2016/17,333,440,23.88719355,55.32610984
Luxembourg,2016/17,118,442,6.07182201,49.76725361
Macedonia,2016/17,245,,,
Malta,2016/17,25,470,14.40523316,35.92149632
Moldova,2016/17,252,,,
Monaco,2016/17,22,492,7.40627677,43.75274627
Montenegro,2016/17,101,499,19.23883939,42.78890259
Netherlands,2016/17,"2,551",528,5.28144793,52.1007899
Norway,2016/17,"2,293",578,15.34834656,68.75015572
Poland,2016/17,"1,489",616,19.39012835,52.12759564
Portugal,2016/17,929,620,-8.50104361,39.59550671
Romania,2016/17,"1,173",642,24.97293039,45.85243127
Russia,2016/17,"5,412",643,96.68656112,61.98052209
San Marino,2016/17,2,674,12.45922334,43.94186747
Serbia,2016/17,"1,055",688,20.78958334,44.2215032
Serbia & Montenegro,2016/17,,,,
Slovakia,2016/17,348,703,19.47905218,48.70547528
Slovenia,2016/17,245,705,14.80444238,46.11554772
Spain,2016/17,"7,164",724,-3.64755047,40.24448698
Sweden,2016/17,"4,053",752,16.74558049,62.77966519
Switzerland,2016/17,"1,487",756,8.20867471,46.79785878
Turkey,2016/17,"10,586",792,35.16895346,39.0616029
"U.S.S.R., Former",2016/17,,,,
Ukraine,2016/17,"1,817",804,31.38326469,48.99656673
United Kingdom,2016/17,"11,489",826,-2.86563164,54.12387156
Vatican City/Holy See,2016/17,0,,,
"Yugoslavia, Former",2016/17,,,,
"Europe, Unspecified",2016/17,4,,,
LATIN AMERICA & CARIBBEAN,2016/17,"79,655",,,
"Latin America & Caribbean, Unspecified",2016/17,0,,,
Caribbean,2016/17,"11,351",,,
Anguilla,2016/17,14,660,-63.06498927,18.2239595
Antigua and Barbuda,2016/17,225,028,-61.79469343,17.2774996
Aruba,2016/17,73,533,-69.98267711,12.52088038
Bahamas,2016/17,"2,252",044,-76.62843038,24.29036702
Barbados,2016/17,319,052,-59.559797,13.18145428
Bermuda,2016/17,315,060,-64.7545589,32.31367802
British Virgin Islands,2016/17,76,092,-64.47146992,18.52585755
Cayman Islands,2016/17,165,136,-80.91213321,19.42896497
Cuba,2016/17,119,192,-79.01605384,21.62289528
Curacao,2016/17,118,,,
Dominica,2016/17,271,212,-61.357726,15.4394702
Dominican Republic,2016/17,"1,428",214,-70.50568896,18.89433082
Grenada,2016/17,194,308,-61.68220189,12.11725044
Guadeloupe,2016/17,9,312,,
Haiti,2016/17,958,332,-72.68527509,18.93502563
Jamaica,2016/17,"2,797",388,-77.31482593,18.15694878
Martinique,2016/17,9,474,,
Montserrat,2016/17,3,500,-62.18518546,16.73941406
Netherlands Antilles,2016/17,,,,
St. Kitts and Nevis,2016/17,218,,,
St. Lucia,2016/17,268,,,
St. Vincent and the Grenadines,2016/17,83,,,
Sint Maarten,2016/17,78,,,
Trinidad and Tobago,2016/17,"1,304",780,-61.26567923,10.45733408
Turks and Caicos,2016/17,50,,,
"Caribbean, Unspecified",2016/17,5,,,
Mexico and Central America,2016/17,"25,158",,,
Belize,2016/17,356,084,-88.71010486,17.20027509
Costa Rica,2016/17,"1,148",188,-84.19208768,9.97634464
El Salvador,2016/17,"1,570",222,-88.87164469,13.73943744
Guatemala,2016/17,"1,217",320,-90.36482009,15.69403664
Honduras,2016/17,"2,046",340,-86.6151661,14.82688165
Mexico,2016/17,"16,835",484,-102.52345169,23.94753724
Nicaragua,2016/17,398,558,-85.0305297,12.84709429
Panama,2016/17,"1,588",591,-80.11915156,8.51750797
"Mexico and Central America, Unspecified",2016/17,0,,,
South America,2016/17,"43,146",,,
Argentina,2016/17,"2,219",032,-65.17980692,-35.3813488
Bolivia,2016/17,"1,207",068,-64.68538645,-16.70814787
Brazil,2016/17,"13,089",076,-53.09783113,-10.78777702
Chile,2016/17,"2,523",152,-71.38256213,-37.73070989
Colombia,2016/17,"7,982",170,-73.08114582,3.91383431
Ecuador,2016/17,"3,032",218,-78.75201922,-1.42381612
Falkland Islands,2016/17,0,,,
French Guiana,2016/17,1,254,,
Guyana,2016/17,250,328,-58.98202459,4.79378034
Paraguay,2016/17,587,600,-58.40013703,-23.22823913
Peru,2016/17,"3,200",604,-74.38242685,-9.15280381
Suriname,2016/17,83,740,-55.9123457,4.13055413
Uruguay,2016/17,433,858,-56.01807053,-32.79951534
Venezuela,2016/17,"8,540",862,-66.18184123,7.12422421
"South America, Unspecified",2016/17,0,,,
MIDDLE EAST & NORTH AFRICA,2016/17,"100,014",,,
MIDDLE EAST,2016/17,"92,470",,,
Bahrain,2016/17,475,048,50.54196932,26.04205135
Iran,2016/17,"12,643",364,54.27407004,32.57503292
Iraq,2016/17,"1,698",368,43.74353149,33.03970582
Israel,2016/17,"2,393",376,35.00444693,31.46110101
Jordan,2016/17,"2,312",400,36.77136104,31.24579091
Kuwait,2016/17,"9,825",414,47.58700459,29.33431262
Lebanon,2016/17,"1,556",422,35.88016072,33.92306631
Oman,2016/17,"2,876",512,56.09166155,20.60515333
Palestinian Territories,2016/17,423,,,
Qatar,2016/17,"1,420",634,51.18479632,25.30601188
Saudi Arabia,2016/17,"52,611",682,44.53686271,24.12245841
Syria,2016/17,827,,,
United Arab Emirates,2016/17,"2,753",784,54.3001671,23.90528188
Yemen,2016/17,658,887,47.58676189,15.90928005
"Middle East, Unspecified",2016/17,0,,,
North Africa,2016/17,"7,544",,,
Algeria,2016/17,192,012,2.61732301,28.15893849
Egypt,2016/17,"3,715",818,29.86190099,26.49593311
Libya,2016/17,"1,311",434,18.00866169,27.03094495
Morocco,2016/17,"1,634",504,-8.45615795,29.83762955
Tunisia,2016/17,692,788,9.55288359,34.11956246
Western Sahara,2016/17,,732,-12.21982755,24.22956739
"North Africa, Unspecified",2016/17,0,,,
NORTH AMERICA,2016/17,"27,065",,,
Canada,2016/17,"27,065",124,-98.30777028,61.36206324
OCEANIA,2016/17,"7,222",,,
Australia,2016/17,"4,933",036,134.49100008,-25.73288704
Cook Islands,2016/17,0,184,-159.78724218,-21.21927288
Fiji,2016/17,100,242,165.45195432,-17.42858032
French Polynesia,2016/17,30,258,-144.90494387,-14.72227409
Kiribati,2016/17,64,296,-45.61110513,0.86001503
Marshall Islands,2016/17,10,584,170.33976122,7.00376358
Micronesia,2016/17,28,,,
Nauru,2016/17,1,520,166.93256823,-0.51912639
New Caledonia,2016/17,5,540,165.68492374,-21.29991806
New Zealand,2016/17,"1,741",554,171.48492347,-41.81113557
Niue,2016/17,4,570,-169.86994682,-19.04945708
Norfolk Island,2016/17,1,574,167.94921678,-29.0514609
Palau,2016/17,15,585,134.40807966,7.28742784
Papua New Guinea,2016/17,77,598,145.20744752,-6.46416646
Samoa,2016/17,56,882,-172.16485064,-13.75324346
Solomon Islands,2016/17,8,090,159.63287668,-8.92178022
Tonga,2016/17,133,776,-174.80987341,-20.42843174
Tuvalu,2016/17,3,798,,
Vanuatu,2016/17,11,548,167.68644636,-16.22640909
Wallis and Futuna,2016/17,2,,,
"Pacific Islands, Unspecified",2016/17,0,,,
Stateless,2016/17,2,,,
WORLD TOTAL,2016/17,"1,078,822",,,
"AFRICA, SUB-SAHARAN",2017/18,"39,479",,,
"Africa, Sub-saharan, Unspecified",2017/18,0,,,
East Africa,2017/18,"9,093",,,
Burundi,2017/18,134,108,29.87512156,-3.35939666
Djibouti,2017/18,9,262,42.5606754,11.74871806
Eritrea,2017/18,151,232,38.84617011,15.36186618
Ethiopia,2017/18,"2,118",231,39.60080098,8.62278679
Kenya,2017/18,"3,322",404,37.79593973,0.59988022
Rwanda,2017/18,"1,232",646,29.91988515,-1.99033832
Seychelles,2017/18,11,690,55.47603279,-4.66099094
Somalia,2017/18,67,706,45.70714487,4.75062876
South Sudan,2017/18,76,728,30.24790002,7.30877945
Sudan,2017/18,331,729,29.94046812,15.99035669
Tanzania,2017/18,824,,,
Uganda,2017/18,818,800,32.36907971,1.27469299
"East Africa, Unspecified",2017/18,0,,,
Central Africa,2017/18,"3,562",,,
Cameroon,2017/18,"1,382",120,12.73964156,5.69109849
Central African Republic,2017/18,14,140,20.46826831,6.56823297
Chad,2017/18,75,148,18.64492513,15.33333758
"Congo, Republic of the (Brazzaville)",2017/18,298,,,
"Congo, Dem. Rep. of the (Kinshasa)",2017/18,"1,123",,,
Equatorial Guinea,2017/18,335,226,10.34137924,1.70555135
Gabon,2017/18,332,266,11.7886287,-0.58660025
São Tomé & Príncipe,2017/18,3,,,
"Central Africa, Unspecified",2017/18,0,,,
Southern Africa,2017/18,"6,429",,,
Angola,2017/18,"1,183",024,17.53736768,-12.29336054
Botswana,2017/18,233,072,23.79853368,-22.18403213
Comoros,2017/18,12,174,43.68253968,-11.87783444
Eswatini,2017/18,188,,,
Lesotho,2017/18,55,426,28.22723131,-29.58003188
Madagascar,2017/18,132,450,46.70473674,-19.37189587
Malawi,2017/18,306,454,34.28935599,-13.21808088
Mauritius,2017/18,288,480,57.57120551,-20.27768704
Mozambique,2017/18,111,508,35.53367543,-17.27381643
Namibia,2017/18,101,516,17.20963567,-22.13032568
Reunion,2017/18,6,,,
South Africa,2017/18,"2,040",710,25.08390093,-29.00034095
Zambia,2017/18,450,894,27.77475946,-13.45824152
Zimbabwe,2017/18,"1,324",716,29.8514412,-19.00420419
"Southern Africa, Unspecified",2017/18,0,,,
West Africa,2017/18,"20,395",,,
Benin,2017/18,234,204,2.32785254,9.6417597
Burkina Faso,2017/18,567,854,-1.75456601,12.26953846
Cabo Verde/Cape Verde,2017/18,67,,,
Côte d’Ivoire/Ivory Coast,2017/18,"1,349",384,-5.5692157,7.6284262
Gambia,2017/18,261,270,-15.39601295,13.44965244
Ghana,2017/18,"3,213",288,-1.21676566,7.95345644
Guinea,2017/18,98,324,-10.94066612,10.43621593
